time,step-size,{uavCont}.controller.pitchOut,{uavCont}.controller.rollOut,{uavCont}.controller.throttleOut,{uavCont}.controller.yawOut,{uav}.uav.batteryCharge,{uav}.uav.currentYaw,{uav}.uav.posX,{uav}.uav.posY,{uav}.uav.posZ,{uav}.uav.velX,{uav}.uav.velY,{uav}.uav.velZ
0,0,0,0,0,0,6480,0,231.6667,180,-443.167,-3.65,0,2.6334
0.1,0.1,0,0,0.37,0,6480,0,231.3017,180,-442.90366,-3.65,0,2.6334
0.2,0.1,0,0,0.51,0,6479.230778,0,230.9367,180,-442.64032,-3.65,0,2.6334
0.3,0.1,0,0,0.51,0,6477.975723,0,230.5717,180,-442.37698,-3.65,0,2.6334
0.4,0.1,0,0,0.51,0,6476.797682,0,230.2067,180,-442.11364,-3.65,0,2.6334
0.5,0.1,0,0,0.51,0,6475.585244,0,229.8417,180,-441.8503,-3.65,0,2.6334
0.6,0.1,0,0,0.51,0,6474.313634,0,229.4767,180,-441.58696,-3.65,0,2.6334
0.7,0.1,0,0,0.51,0,6473.016985,0,229.1117,180,-441.32362,-3.65,0,2.6334
0.8,0.1,0,0,0.51,0,6471.825724,0,228.7467,180,-441.06028,-3.65,0,2.6334
0.9,0.1,0,0,0.51,0,6470.622516,0,228.3817,180,-440.79694,-3.65,0,2.6334
1,0.1,0,0,0.51,0,6469.354728,0,228.0167,180,-440.5336,-3.65,0,2.6334
1.1,0.1,0,0,0.51,0,6468.059728,0,227.6517,180,-440.27026,-3.65,0,2.6334
1.2,0.1,0,0,0.51,0,6466.752871,0,227.2867,180,-440.00692,-3.65,0,2.6334
1.3,0.1,0,0,0.51,0,6465.558012,0,226.9217,180,-439.74358,-3.65,0,2.6334
1.4,0.1,0,0,0.51,0,6464.357182,0,226.5567,180,-439.48024,-3.65,0,2.6334
1.5,0.1,0,0,0.51,0,6463.090374,0,226.1917,180,-439.2169,-3.65,0,2.6334
1.6,0.1,0,0,0.51,0,6461.795797,0,225.8267,180,-438.95356,-3.65,0,2.6334
1.7,0.1,0,0,0.51,0,6460.489126,0,225.4617,180,-438.69022,-3.65,0,2.6334
1.8,0.1,0,0,0.51,0,6459.294332,0,225.0967,180,-438.42688,-3.65,0,2.6334
1.9,0.1,0,0,0.51,0,6458.093459,0,224.7317,180,-438.16354,-3.65,0,2.6334
2,0.1,0,0,0.51,0,6456.826633,0,224.3667,180,-437.9002,-3.65,0,2.6334
2.1,0.1,0,0,0.51,0,6455.401768,0,224.0017,180,-437.63686,-3.65,0,2.6334
2.2,0.1,0,0,0.51,0,6454.094343,0,223.6367,180,-437.37352,-3.65,0,2.6334
2.3,0.1,0,0,0.51,0,6452.899283,0,223.2717,180,-437.11018,-3.65,0,2.6334
2.4,0.1,0,0,0.51,0,6451.698587,0,222.9067,180,-436.84684,-3.65,0,2.6334
2.5,0.1,0,0,0.51,0,6450.431834,0,222.5417,180,-436.5835,-3.65,0,2.6334
2.6,0.1,0,0,0.51,0,6449.13728,0,222.1767,180,-436.32016,-3.65,0,2.6334
2.7,0.1,0,0,0.51,0,6447.83062,0,221.8117,180,-436.05682,-3.65,0,2.6334
2.8,0.1,0,0,0.51,0,6446.518597,0,221.4467,180,-435.79348,-3.65,0,2.6334
2.9,0.1,0,0,0.51,0,6445.321842,0,221.0817,180,-435.53014,-3.65,0,2.6334
3,0.1,0,0,0.51,0,6444.122234,0,220.7167,180,-435.2668,-3.65,0,2.6334
3.1,0.1,0,0,0.51,0,6442.85593,0,220.3517,180,-435.00346,-3.65,0,2.6334
3.2,0.1,0,0,0.51,0,6441.561569,0,219.9867,180,-434.74012,-3.65,0,2.6334
3.3,0.1,0,0,0.51,0,6440.254994,0,219.6217,180,-434.47678,-3.65,0,2.6334
3.4,0.1,0,0,0.51,0,6438.943009,0,219.2567,180,-434.21344,-3.65,0,2.6334
3.5,0.1,0,0,0.51,0,6437.746271,0,218.8917,180,-433.9501,-3.65,0,2.6334
3.6,0.1,0,0,0.51,0,6436.546654,0,218.5267,180,-433.68676,-3.65,0,2.6334
3.7,0.1,0,0,0.51,0,6435.280346,0,218.1617,180,-433.42342,-3.65,0,2.6334
3.8,0.1,0,0,0.51,0,6433.985984,0,217.7967,180,-433.16008,-3.65,0,2.6334
3.9,0.1,0,0,0.51,0,6432.679408,0,217.4317,180,-432.89674,-3.65,0,2.6334
4,0.1,0,0,0.51,0,6431.367422,0,217.0667,180,-432.6334,-3.65,0,2.6334
4.1,0.1,0,0,0.51,0,6430.170684,0,216.7017,180,-432.37006,-3.65,0,2.6334
4.2,0.1,0,0,0.51,0,6428.971067,0,216.3367,180,-432.10672,-3.65,0,2.6334
4.3,0.1,0,0,0.37,0,6427.70476,0,215.9717,180,-431.84338,-3.65,0,2.6334
4.4,0.1,0,0,0.37,0,6426.765712,0,215.6067,180,-431.58004,-3.65,0,2.6334
4.5,0.1,0,0,0.37,0,6425.817804,0,215.2417,180,-431.3167,-3.65,0,2.6334
4.6,0.1,0,0,0.37,0,6424.869798,0,214.8767,180,-431.05336,-3.65,0,2.6334
4.7,0.1,0,0,0.37,0,6423.83088,0,214.5117,180,-430.79002,-3.65,0,2.6334
4.8,0.1,0,0,0.37,0,6422.715356,0,214.1467,180,-430.52668,-3.65,0,2.6334
4.9,0.1,0,0,0.37,0,6421.569166,0,213.7817,180,-430.26334,-3.65,0,2.6334
5,0.1,0,0,0.37,0,6420.409997,0,213.4167,180,-430,-3.65,0,2.6334
5.1,0.1,0,0,0.37,0,6419.24516,0,213.0517,180,-429.73666,-3.65,0,2.6334
5.2,0.1,0,0,0.37,0,6418.077808,0,212.6867,180,-429.47332,-3.65,0,2.6334
5.3,0.1,0,0,0.37,0,6416.909332,0,212.3217,180,-429.20998,-3.65,0,2.6334
5.4,0.1,0,0,0.37,0,6415.740352,0,211.9567,180,-428.94664,-3.65,0,2.6334
5.5,0.1,0,0,0.37,0,6414.571146,0,211.5917,180,-428.6833,-3.65,0,2.6334
5.6,0.1,0,0,0.37,0,6413.401838,0,211.2267,180,-428.41996,-3.65,0,2.6334
5.7,0.1,0,0,0.37,0,6412.232484,0,210.8617,180,-428.15662,-3.65,0,2.6334
5.8,0.1,0,0,0.37,0,6411.063109,0,210.4967,180,-427.89328,-3.65,0,2.6334
5.9,0.1,0,0,0.37,0,6409.893726,0,210.1317,180,-427.62994,-3.65,0,2.6334
6,0.1,0,0,0.37,0,6408.724338,0,209.7667,180,-427.3666,-3.65,0,2.6334
6.1,0.1,0,0,0.37,0,6407.554948,0,209.4017,180,-427.10326,-3.65,0,2.6334
6.2,0.1,0,0,0.37,0,6406.385557,0,209.0367,180,-426.83992,-3.65,0,2.6334
6.3,0.1,0,0,0.37,0,6405.216166,0,208.6717,180,-426.57658,-3.65,0,2.6334
6.4,0.1,0,0,0.37,0,6404.046775,0,208.3067,180,-426.31324,-3.65,0,2.6334
6.5,0.1,0,0,0.37,0,6402.877384,0,207.9417,180,-426.0499,-3.65,0,2.6334
6.6,0.1,0,0,0.37,0,6401.707992,0,207.5767,180,-425.78656,-3.65,0,2.6334
6.7,0.1,0,0,0.37,0,6400.549414,0,207.2117,180,-425.52322,-3.65,0,2.6334
6.8,0.1,0,0,0.37,0,6399.433665,0,206.8467,180,-425.25988,-3.65,0,2.6334
6.9,0.1,0,0,0.37,0,6398.401834,0,206.4817,180,-424.99654,-3.65,0,2.6334
7,0.1,0,0,0.37,0,6397.403737,0,206.1167,180,-424.7332,-3.65,0,2.6334
7.1,0.1,0,0,0.37,0,6396.31704,0,205.7517,180,-424.46986,-3.65,0,2.6334
7.2,0.1,0,0,0.37,0,6395.180936,0,205.3867,180,-424.20652,-3.65,0,2.6334
7.3,0.1,0,0,0.37,0,6394.025737,0,205.0217,180,-423.94318,-3.65,0,2.6334
7.4,0.1,0,0,0.37,0,6392.86257,0,204.6567,180,-423.67984,-3.65,0,2.6334
7.5,0.1,0,0,0.37,0,6391.695946,0,204.2917,180,-423.4165,-3.65,0,2.6334
7.6,0.1,0,0,0.37,0,6390.527792,0,203.9267,180,-423.15316,-3.65,0,2.6334
7.7,0.1,0,0,0.37,0,6389.435077,0,203.5617,180,-422.88982,-3.65,0,2.6334
7.8,0.1,0,0,0.37,0,6388.341631,0,203.1967,180,-422.62648,-3.65,0,2.6334
7.9,0.1,0,0,0.37,0,6387.20415,0,202.8317,180,-422.36314,-3.65,0,2.6334
8,0.1,0,0,0.37,0,6386.048647,0,202.4667,180,-422.0998,-3.65,0,2.6334
8.1,0.1,0,0,0.37,0,6384.885407,0,202.1017,180,-421.83646,-3.65,0,2.6334
8.2,0.1,0,0,0.37,0,6383.718763,0,201.7367,180,-421.57312,-3.65,0,2.6334
8.3,0.1,0,0,0.37,0,6382.550604,0,201.3717,180,-421.30978,-3.65,0,2.6334
8.4,0.1,0,0,0.37,0,6381.381766,0,201.0067,180,-421.04644,-3.65,0,2.6334
8.5,0.1,0,0,0.37,0,6380.212623,0,200.6417,180,-420.7831,-3.65,0,2.6334
8.6,0.1,0,0,0.37,0,6379.043343,0,200.2767,180,-420.51976,-3.65,0,2.6334
8.7,0.1,0,0,0.37,0,6377.874002,0,199.9117,180,-420.25642,-3.65,0,2.6334
8.8,0.1,0,0,0.37,0,6376.704634,0,199.5467,180,-419.99308,-3.65,0,2.6334
8.9,0.1,0,0,0.37,0,6375.535252,0,199.1817,180,-419.72974,-3.65,0,2.6334
9,0.1,0,0,0.37,0,6374.367073,0,198.8167,180,-419.4664,-3.65,0,2.6334
9.1,0.1,0,0,0.37,0,6373.212539,0,198.4517,180,-419.20306,-3.65,0,2.6334
9.2,0.1,0,0,0.37,0,6372.090034,0,198.0867,180,-418.93972,-3.65,0,2.6334
9.3,0.1,0,0,0.37,0,6371.014788,0,197.7217,180,-418.67638,-3.65,0,2.6334
9.4,0.1,0,0,0.37,0,6369.998655,0,197.3567,180,-418.41304,-3.65,0,2.6334
9.5,0.1,0,0,0.37,0,6369.026358,0,196.9917,180,-418.1497,-3.65,0,2.6334
9.6,0.1,0,0,0.37,0,6368.007331,0,196.6267,180,-417.88636,-3.65,0,2.6334
9.7,0.1,0,0,0.37,0,6366.942006,0,196.2617,180,-417.62302,-3.65,0,2.6334
9.8,0.1,0,0,0.37,0,6365.843159,0,195.8967,180,-417.35968,-3.65,0,2.6334
9.9,0.1,0,0,0.51,0,6364.721801,0,195.5317,180,-417.09634,-3.65,0,2.6334
10,0.1,0,0,0.51,0,6363.157631,0,195.1667,180,-416.833,-3.96667,0,2.15
10.1,0.1,0,0,0.51,0,6361.593461,0,194.770033,180,-416.618,-3.96667,0,2.15
10.2,0.1,0,0,0.51,0,6360.029292,0,194.373366,180,-416.403,-3.96667,0,2.15
10.3,0.1,0,0,0.51,0,6358.465122,0,193.976699,180,-416.188,-3.96667,0,2.15
10.4,0.1,0,0,0.51,0,6356.900952,0,193.580032,180,-415.973,-3.96667,0,2.15
10.5,0.1,0,0,0.51,0,6355.336782,0,193.183365,180,-415.758,-3.96667,0,2.15
10.6,0.1,0,0,0.51,0,6353.772612,0,192.786698,180,-415.543,-3.96667,0,2.15
10.7,0.1,0,0,0.51,0,6352.208442,0,192.390031,180,-415.328,-3.96667,0,2.15
10.8,0.1,0,0,0.51,0,6350.644272,0,191.993364,180,-415.113,-3.96667,0,2.15
10.9,0.1,0,0,0.51,0,6349.080103,0,191.596697,180,-414.898,-3.96667,0,2.15
11,0.1,0,0,0.51,0,6347.515933,0,191.20003,180,-414.683,-3.96667,0,2.15
11.1,0.1,0,0,0.51,0,6345.951763,0,190.803363,180,-414.468,-3.96667,0,2.15
11.2,0.1,0,0,0.51,0,6344.387593,0,190.406696,180,-414.253,-3.96667,0,2.15
11.3,0.1,0,0,0.51,0,6342.823423,0,190.010029,180,-414.038,-3.96667,0,2.15
11.4,0.1,0,0,0.51,0,6341.259253,0,189.613362,180,-413.823,-3.96667,0,2.15
11.5,0.1,0,0,0.51,0,6339.695084,0,189.216695,180,-413.608,-3.96667,0,2.15
11.6,0.1,0,0,0.51,0,6338.130914,0,188.820028,180,-413.393,-3.96667,0,2.15
11.7,0.1,0,0,0.51,0,6336.566744,0,188.423361,180,-413.178,-3.96667,0,2.15
11.8,0.1,0,0,0.51,0,6335.002574,0,188.026694,180,-412.963,-3.96667,0,2.15
11.9,0.1,0,0,0.51,0,6333.438404,0,187.630027,180,-412.748,-3.96667,0,2.15
12,0.1,0,0,0.51,0,6331.874234,0,187.23336,180,-412.533,-3.96667,0,2.15
12.1,0.1,0,0,0.51,0,6330.310064,0,186.836693,180,-412.318,-3.96667,0,2.15
12.2,0.1,0,0,0.51,0,6328.745895,0,186.440026,180,-412.103,-3.96667,0,2.15
12.3,0.1,0,0,0.51,0,6327.181725,0,186.043359,180,-411.888,-3.96667,0,2.15
12.4,0.1,0,0,0.51,0,6325.617555,0,185.646692,180,-411.673,-3.96667,0,2.15
12.5,0.1,0,0,0.51,0,6324.053385,0,185.250025,180,-411.458,-3.96667,0,2.15
12.6,0.1,0,0,0.51,0,6322.489215,0,184.853358,180,-411.243,-3.96667,0,2.15
12.7,0.1,0,0,0.51,0,6320.925045,0,184.456691,180,-411.028,-3.96667,0,2.15
12.8,0.1,0,0,0.51,0,6319.360876,0,184.060024,180,-410.813,-3.96667,0,2.15
12.9,0.1,0,0,0.51,0,6317.796706,0,183.663357,180,-410.598,-3.96667,0,2.15
13,0.1,0,0,0.51,0,6316.232536,0,183.26669,180,-410.383,-3.96667,0,2.15
13.1,0.1,0,0,0.51,0,6314.668366,0,182.870023,180,-410.168,-3.96667,0,2.15
13.2,0.1,0,0,0.51,0,6313.104196,0,182.473356,180,-409.953,-3.96667,0,2.15
13.3,0.1,0,0,0.51,0,6311.540026,0,182.076689,180,-409.738,-3.96667,0,2.15
13.4,0.1,0,0,0.51,0,6309.975857,0,181.680022,180,-409.523,-3.96667,0,2.15
13.5,0.1,0,0,0.51,0,6308.411687,0,181.283355,180,-409.308,-3.96667,0,2.15
13.6,0.1,0,0,0.51,0,6306.847517,0,180.886688,180,-409.093,-3.96667,0,2.15
13.7,0.1,0,0,0.51,0,6305.283347,0,180.490021,180,-408.878,-3.96667,0,2.15
13.8,0.1,0,0,0.51,0,6303.719177,0,180.093354,180,-408.663,-3.96667,0,2.15
13.9,0.1,0,0,0.51,0,6302.155007,0,179.696687,180,-408.448,-3.96667,0,2.15
14,0.1,0,0,0.51,0,6300.590837,0,179.30002,180,-408.233,-3.96667,0,2.15
14.1,0.1,0,0,0.51,0,6299.026668,0,178.903353,180,-408.018,-3.96667,0,2.15
14.2,0.1,0,0,0.51,0,6297.462498,0,178.506686,180,-407.803,-3.96667,0,2.15
14.3,0.1,0,0,0.51,0,6295.898328,0,178.110019,180,-407.588,-3.96667,0,2.15
14.4,0.1,0,0,0.51,0,6294.334158,0,177.713352,180,-407.373,-3.96667,0,2.15
14.5,0.1,0,0,0.51,0,6292.769988,0,177.316685,180,-407.158,-3.96667,0,2.15
14.6,0.1,0,0,0.51,0,6291.205818,0,176.920018,180,-406.943,-3.96667,0,2.15
14.7,0.1,0,0,0.51,0,6289.641649,0,176.523351,180,-406.728,-3.96667,0,2.15
14.8,0.1,0,0,0.51,0,6288.077479,0,176.126684,180,-406.513,-3.96667,0,2.15
14.9,0.1,0,0,0.51,0,6286.513309,0,175.730017,180,-406.298,-3.96667,0,2.15
15,0.1,0,0,0.51,0,6284.949139,0,175.33335,180,-406.083,-3.96667,0,2.15
15.1,0.1,0,0,0.51,0,6283.384969,0,174.936683,180,-405.868,-3.96667,0,2.15
15.2,0.1,0,0,0.51,0,6281.820799,0,174.540016,180,-405.653,-3.96667,0,2.15
15.3,0.1,0,0,0.51,0,6280.256629,0,174.143349,180,-405.438,-3.96667,0,2.15
15.4,0.1,0,0,0.51,0,6278.69246,0,173.746682,180,-405.223,-3.96667,0,2.15
15.5,0.1,0,0,0.51,0,6277.12829,0,173.350015,180,-405.008,-3.96667,0,2.15
15.6,0.1,0,0,0.51,0,6275.56412,0,172.953348,180,-404.793,-3.96667,0,2.15
15.7,0.1,0,0,0.51,0,6273.99995,0,172.556681,180,-404.578,-3.96667,0,2.15
15.8,0.1,0,0,0.51,0,6272.43578,0,172.160014,180,-404.363,-3.96667,0,2.15
15.9,0.1,0,0,0.51,0,6270.87161,0,171.763347,180,-404.148,-3.96667,0,2.15
16,0.1,0,0,0.51,0,6269.307441,0,171.36668,180,-403.933,-3.96667,0,2.15
16.1,0.1,0,0,0.51,0,6267.743271,0,170.970013,180,-403.718,-3.96667,0,2.15
16.2,0.1,0,0,0.51,0,6266.179101,0,170.573346,180,-403.503,-3.96667,0,2.15
16.3,0.1,0,0,0.51,0,6264.614931,0,170.176679,180,-403.288,-3.96667,0,2.15
16.4,0.1,0,0,0.51,0,6263.050761,0,169.780012,180,-403.073,-3.96667,0,2.15
16.5,0.1,0,0,0.51,0,6261.486591,0,169.383345,180,-402.858,-3.96667,0,2.15
16.6,0.1,0,0,0.51,0,6259.922421,0,168.986678,180,-402.643,-3.96667,0,2.15
16.7,0.1,0,0,0.51,0,6258.358252,0,168.590011,180,-402.428,-3.96667,0,2.15
16.8,0.1,0,0,0.51,0,6256.794082,0,168.193344,180,-402.213,-3.96667,0,2.15
16.9,0.1,0,0,0.51,0,6255.229912,0,167.796677,180,-401.998,-3.96667,0,2.15
17,0.1,0,0,0.51,0,6253.665742,0,167.40001,180,-401.783,-3.96667,0,2.15
17.1,0.1,0,0,0.51,0,6252.101572,0,167.003343,180,-401.568,-3.96667,0,2.15
17.2,0.1,0,0,0.51,0,6250.537402,0,166.606676,180,-401.353,-3.96667,0,2.15
17.3,0.1,0,0,0.51,0,6248.973233,0,166.210009,180,-401.138,-3.96667,0,2.15
17.4,0.1,0,0,0.51,0,6247.409063,0,165.813342,180,-400.923,-3.96667,0,2.15
17.5,0.1,0,0,0.51,0,6245.844893,0,165.416675,180,-400.708,-3.96667,0,2.15
17.6,0.1,0,0,0.51,0,6244.280723,0,165.020008,180,-400.493,-3.96667,0,2.15
17.7,0.1,0,0,0.51,0,6242.716553,0,164.623341,180,-400.278,-3.96667,0,2.15
17.8,0.1,0,0,0.51,0,6241.152383,0,164.226674,180,-400.063,-3.96667,0,2.15
17.9,0.1,0,0,0.51,0,6239.588213,0,163.830007,180,-399.848,-3.96667,0,2.15
18,0.1,0,0,0.51,0,6238.024044,0,163.43334,180,-399.633,-3.96667,0,2.15
18.1,0.1,0,0,0.51,0,6236.459874,0,163.036673,180,-399.418,-3.96667,0,2.15
18.2,0.1,0,0,0.51,0,6234.895704,0,162.640006,180,-399.203,-3.96667,0,2.15
18.3,0.1,0,0,0.51,0,6233.331534,0,162.243339,180,-398.988,-3.96667,0,2.15
18.4,0.1,0,0,0.51,0,6231.767364,0,161.846672,180,-398.773,-3.96667,0,2.15
18.5,0.1,0,0,0.51,0,6230.203194,0,161.450005,180,-398.558,-3.96667,0,2.15
18.6,0.1,0,0,0.51,0,6228.639025,0,161.053338,180,-398.343,-3.96667,0,2.15
18.7,0.1,0,0,0.51,0,6227.074855,0,160.656671,180,-398.128,-3.96667,0,2.15
18.8,0.1,0,0,0.51,0,6225.510685,0,160.260004,180,-397.913,-3.96667,0,2.15
18.9,0.1,0,0,0.51,0,6223.946515,0,159.863337,180,-397.698,-3.96667,0,2.15
19,0.1,0,0,0.51,0,6222.382345,0,159.46667,180,-397.483,-3.96667,0,2.15
19.1,0.1,0,0,0.51,0,6220.818175,0,159.070003,180,-397.268,-3.96667,0,2.15
19.2,0.1,0,0,0.51,0,6219.254005,0,158.673336,180,-397.053,-3.96667,0,2.15
19.3,0.1,0,0,0.51,0,6217.689836,0,158.276669,180,-396.838,-3.96667,0,2.15
19.4,0.1,0,0,0.51,0,6216.125666,0,157.880002,180,-396.623,-3.96667,0,2.15
19.5,0.1,0,0,0.51,0,6214.561496,0,157.483335,180,-396.408,-3.96667,0,2.15
19.6,0.1,0,0,0.51,0,6212.997326,0,157.086668,180,-396.193,-3.96667,0,2.15
19.7,0.1,0,0,0.51,0,6211.433156,0,156.690001,180,-395.978,-3.96667,0,2.15
19.8,0.1,0,0,0.51,0,6209.868986,0,156.293334,180,-395.763,-3.96667,0,2.15
19.9,0.1,0,0,0.51,0,6208.304817,0,155.896667,180,-395.548,-3.96667,0,2.15
20,0.1,0,0,0.51,0,6206.740647,0,155.5,180,-395.333,-3.83333,0,2.3666
20.1,0.1,0,0,0.51,0,6205.176477,0,155.116667,180,-395.09634,-3.83333,0,2.3666
20.2,0.1,0,0,0.51,0,6203.612307,0,154.733334,180,-394.85968,-3.83333,0,2.3666
20.3,0.1,0,0,0.51,0,6202.048137,0,154.350001,180,-394.62302,-3.83333,0,2.3666
20.4,0.1,0,0,0.51,0,6200.483967,0,153.966668,180,-394.38636,-3.83333,0,2.3666
20.5,0.1,0,0,0.51,0,6198.919797,0,153.583335,180,-394.1497,-3.83333,0,2.3666
20.6,0.1,0,0,0.51,0,6197.355628,0,153.200002,180,-393.91304,-3.83333,0,2.3666
20.7,0.1,0,0,0.51,0,6195.791458,0,152.816669,180,-393.67638,-3.83333,0,2.3666
20.8,0.1,0,0,0.51,0,6194.227288,0,152.433336,180,-393.43972,-3.83333,0,2.3666
20.9,0.1,0,0,0.51,0,6192.663118,0,152.050003,180,-393.20306,-3.83333,0,2.3666
21,0.1,0,0,0.51,0,6191.098948,0,151.66667,180,-392.9664,-3.83333,0,2.3666
21.1,0.1,0,0,0.51,0,6189.534778,0,151.283337,180,-392.72974,-3.83333,0,2.3666
21.2,0.1,0,0,0.51,0,6187.970609,0,150.900004,180,-392.49308,-3.83333,0,2.3666
21.3,0.1,0,0,0.51,0,6186.406439,0,150.516671,180,-392.25642,-3.83333,0,2.3666
21.4,0.1,0,0,0.51,0,6184.842269,0,150.133338,180,-392.01976,-3.83333,0,2.3666
21.5,0.1,0,0,0.51,0,6183.278099,0,149.750005,180,-391.7831,-3.83333,0,2.3666
21.6,0.1,0,0,0.51,0,6181.713929,0,149.366672,180,-391.54644,-3.83333,0,2.3666
21.7,0.1,0,0,0.51,0,6180.149759,0,148.983339,180,-391.30978,-3.83333,0,2.3666
21.8,0.1,0,0,0.51,0,6178.585589,0,148.600006,180,-391.07312,-3.83333,0,2.3666
21.9,0.1,0,0,0.51,0,6177.02142,0,148.216673,180,-390.83646,-3.83333,0,2.3666
22,0.1,0,0,0.51,0,6175.45725,0,147.83334,180,-390.5998,-3.83333,0,2.3666
22.1,0.1,0,0,0.51,0,6173.89308,0,147.450007,180,-390.36314,-3.83333,0,2.3666
22.2,0.1,0,0,0.51,0,6172.32891,0,147.066674,180,-390.12648,-3.83333,0,2.3666
22.3,0.1,0,0,0.51,0,6170.76474,0,146.683341,180,-389.88982,-3.83333,0,2.3666
22.4,0.1,0,0,0.51,0,6169.20057,0,146.300008,180,-389.65316,-3.83333,0,2.3666
22.5,0.1,0,0,0.51,0,6167.636401,0,145.916675,180,-389.4165,-3.83333,0,2.3666
22.6,0.1,0,0,0.51,0,6166.072231,0,145.533342,180,-389.17984,-3.83333,0,2.3666
22.7,0.1,0,0,0.51,0,6164.508061,0,145.150009,180,-388.94318,-3.83333,0,2.3666
22.8,0.1,0,0,0.51,0,6162.943891,0,144.766676,180,-388.70652,-3.83333,0,2.3666
22.9,0.1,0,0,0.51,0,6161.379721,0,144.383343,180,-388.46986,-3.83333,0,2.3666
23,0.1,0,0,0.51,0,6159.815551,0,144.00001,180,-388.2332,-3.83333,0,2.3666
23.1,0.1,0,0,0.51,0,6158.251382,0,143.616677,180,-387.99654,-3.83333,0,2.3666
23.2,0.1,0,0,0.51,0,6156.687212,0,143.233344,180,-387.75988,-3.83333,0,2.3666
23.3,0.1,0,0,0.51,0,6155.123042,0,142.850011,180,-387.52322,-3.83333,0,2.3666
23.4,0.1,0,0,0.51,0,6153.558872,0,142.466678,180,-387.28656,-3.83333,0,2.3666
23.5,0.1,0,0,0.51,0,6151.994702,0,142.083345,180,-387.0499,-3.83333,0,2.3666
23.6,0.1,0,0,0.51,0,6150.430532,0,141.700012,180,-386.81324,-3.83333,0,2.3666
23.7,0.1,0,0,0.51,0,6148.866362,0,141.316679,180,-386.57658,-3.83333,0,2.3666
23.8,0.1,0,0,0.51,0,6147.302193,0,140.933346,180,-386.33992,-3.83333,0,2.3666
23.9,0.1,0,0,0.51,0,6145.738023,0,140.550013,180,-386.10326,-3.83333,0,2.3666
24,0.1,0,0,0.51,0,6144.173853,0,140.16668,180,-385.8666,-3.83333,0,2.3666
24.1,0.1,0,0,0.51,0,6142.609683,0,139.783347,180,-385.62994,-3.83333,0,2.3666
24.2,0.1,0,0,0.51,0,6141.045513,0,139.400014,180,-385.39328,-3.83333,0,2.3666
24.3,0.1,0,0,0.51,0,6139.481343,0,139.016681,180,-385.15662,-3.83333,0,2.3666
24.4,0.1,0,0,0.51,0,6137.917174,0,138.633348,180,-384.91996,-3.83333,0,2.3666
24.5,0.1,0,0,0.51,0,6136.353004,0,138.250015,180,-384.6833,-3.83333,0,2.3666
24.6,0.1,0,0,0.51,0,6134.788834,0,137.866682,180,-384.44664,-3.83333,0,2.3666
24.7,0.1,0,0,0.51,0,6133.224664,0,137.483349,180,-384.20998,-3.83333,0,2.3666
24.8,0.1,0,0,0.51,0,6131.660494,0,137.100016,180,-383.97332,-3.83333,0,2.3666
24.9,0.1,0,0,0.51,0,6130.096324,0,136.716683,180,-383.73666,-3.83333,0,2.3666
25,0.1,0,0,0.51,0,6128.532154,0,136.33335,180,-383.5,-3.83333,0,2.3666
25.1,0.1,0,0,0.51,0,6126.967985,0,135.950017,180,-383.26334,-3.83333,0,2.3666
25.2,0.1,0,0,0.51,0,6125.403815,0,135.566684,180,-383.02668,-3.83333,0,2.3666
25.3,0.1,0,0,0.51,0,6123.839645,0,135.183351,180,-382.79002,-3.83333,0,2.3666
25.4,0.1,0,0,0.51,0,6122.275475,0,134.800018,180,-382.55336,-3.83333,0,2.3666
25.5,0.1,0,0,0.51,0,6120.711305,0,134.416685,180,-382.3167,-3.83333,0,2.3666
25.6,0.1,0,0,0.51,0,6119.147135,0,134.033352,180,-382.08004,-3.83333,0,2.3666
25.7,0.1,0,0,0.51,0,6117.582966,0,133.650019,180,-381.84338,-3.83333,0,2.3666
25.8,0.1,0,0,0.51,0,6116.018796,0,133.266686,180,-381.60672,-3.83333,0,2.3666
25.9,0.1,0,0,0.51,0,6114.454626,0,132.883353,180,-381.37006,-3.83333,0,2.3666
26,0.1,0,0,0.51,0,6112.890456,0,132.50002,180,-381.1334,-3.83333,0,2.3666
26.1,0.1,0,0,0.51,0,6111.326286,0,132.116687,180,-380.89674,-3.83333,0,2.3666
26.2,0.1,0,0,0.51,0,6109.762116,0,131.733354,180,-380.66008,-3.83333,0,2.3666
26.3,0.1,0,0,0.51,0,6108.197946,0,131.350021,180,-380.42342,-3.83333,0,2.3666
26.4,0.1,0,0,0.51,0,6106.633777,0,130.966688,180,-380.18676,-3.83333,0,2.3666
26.5,0.1,0,0,0.51,0,6105.069607,0,130.583355,180,-379.9501,-3.83333,0,2.3666
26.6,0.1,0,0,0.51,0,6103.505437,0,130.200022,180,-379.71344,-3.83333,0,2.3666
26.7,0.1,0,0,0.51,0,6101.941267,0,129.816689,180,-379.47678,-3.83333,0,2.3666
26.8,0.1,0,0,0.51,0,6100.377097,0,129.433356,180,-379.24012,-3.83333,0,2.3666
26.9,0.1,0,0,0.51,0,6098.812927,0,129.050023,180,-379.00346,-3.83333,0,2.3666
27,0.1,0,0,0.51,0,6097.248758,0,128.66669,180,-378.7668,-3.83333,0,2.3666
27.1,0.1,0,0,0.51,0,6095.684588,0,128.283357,180,-378.53014,-3.83333,0,2.3666
27.2,0.1,0,0,0.51,0,6094.120418,0,127.900024,180,-378.29348,-3.83333,0,2.3666
27.3,0.1,0,0,0.51,0,6092.556248,0,127.516691,180,-378.05682,-3.83333,0,2.3666
27.4,0.1,0,0,0.51,0,6090.992078,0,127.133358,180,-377.82016,-3.83333,0,2.3666
27.5,0.1,0,0,0.51,0,6089.427908,0,126.750025,180,-377.5835,-3.83333,0,2.3666
27.6,0.1,0,0,0.51,0,6087.863738,0,126.366692,180,-377.34684,-3.83333,0,2.3666
27.7,0.1,0,0,0.51,0,6086.299569,0,125.983359,180,-377.11018,-3.83333,0,2.3666
27.8,0.1,0,0,0.51,0,6084.735399,0,125.600026,180,-376.87352,-3.83333,0,2.3666
27.9,0.1,0,0,0.51,0,6083.171229,0,125.216693,180,-376.63686,-3.83333,0,2.3666
28,0.1,0,0,0.51,0,6081.607059,0,124.83336,180,-376.4002,-3.83333,0,2.3666
28.1,0.1,0,0,0.51,0,6080.042889,0,124.450027,180,-376.16354,-3.83333,0,2.3666
28.2,0.1,0,0,0.51,0,6078.478719,0,124.066694,180,-375.92688,-3.83333,0,2.3666
28.3,0.1,0,0,0.51,0,6076.91455,0,123.683361,180,-375.69022,-3.83333,0,2.3666
28.4,0.1,0,0,0.51,0,6075.35038,0,123.300028,180,-375.45356,-3.83333,0,2.3666
28.5,0.1,0,0,0.51,0,6073.78621,0,122.916695,180,-375.2169,-3.83333,0,2.3666
28.6,0.1,0,0,0.51,0,6072.22204,0,122.533362,180,-374.98024,-3.83333,0,2.3666
28.7,0.1,0,0,0.51,0,6070.65787,0,122.150029,180,-374.74358,-3.83333,0,2.3666
28.8,0.1,0,0,0.51,0,6069.0937,0,121.766696,180,-374.50692,-3.83333,0,2.3666
28.9,0.1,0,0,0.51,0,6067.52953,0,121.383363,180,-374.27026,-3.83333,0,2.3666
29,0.1,0,0,0.51,0,6065.965361,0,121.00003,180,-374.0336,-3.83333,0,2.3666
29.1,0.1,0,0,0.51,0,6064.401191,0,120.616697,180,-373.79694,-3.83333,0,2.3666
29.2,0.1,0,0,0.51,0,6062.837021,0,120.233364,180,-373.56028,-3.83333,0,2.3666
29.3,0.1,0,0,0.51,0,6061.272851,0,119.850031,180,-373.32362,-3.83333,0,2.3666
29.4,0.1,0,0,0.51,0,6059.708681,0,119.466698,180,-373.08696,-3.83333,0,2.3666
29.5,0.1,0,0,0.51,0,6058.144511,0,119.083365,180,-372.8503,-3.83333,0,2.3666
29.6,0.1,0,0,0.51,0,6056.580342,0,118.700032,180,-372.61364,-3.83333,0,2.3666
29.7,0.1,0,0,0.51,0,6055.016172,0,118.316699,180,-372.37698,-3.83333,0,2.3666
29.8,0.1,0,0,0.51,0,6053.452002,0,117.933366,180,-372.14032,-3.83333,0,2.3666
29.9,0.1,0,0,0.51,0,6051.887832,0,117.550033,180,-371.90366,-3.83333,0,2.3666
30,0.1,0,0,0.51,0,6050.323662,0,117.1667,180,-371.667,-3.800003,0,2.4334
30.1,0.1,0,0,0.51,0,6048.759492,0,116.7866997,180,-371.42366,-3.800003,0,2.4334
30.2,0.1,0,0,0.51,0,6047.195322,0,116.4066994,180,-371.18032,-3.800003,0,2.4334
30.3,0.1,0,0,0.51,0,6045.631153,0,116.0266991,180,-370.93698,-3.800003,0,2.4334
30.4,0.1,0,0,0.51,0,6044.066983,0,115.6466988,180,-370.69364,-3.800003,0,2.4334
30.5,0.1,0,0,0.51,0,6042.502813,0,115.2666985,180,-370.4503,-3.800003,0,2.4334
30.6,0.1,0,0,0.51,0,6040.938643,0,114.8866982,180,-370.20696,-3.800003,0,2.4334
30.7,0.1,0,0,0.51,0,6039.374473,0,114.5066979,180,-369.96362,-3.800003,0,2.4334
30.8,0.1,0,0,0.51,0,6037.810303,0,114.1266976,180,-369.72028,-3.800003,0,2.4334
30.9,0.1,0,0,0.51,0,6036.246134,0,113.7466973,180,-369.47694,-3.800003,0,2.4334
31,0.1,0,0,0.51,0,6034.681964,0,113.366697,180,-369.2336,-3.800003,0,2.4334
31.1,0.1,0,0,0.51,0,6033.117794,0,112.9866967,180,-368.99026,-3.800003,0,2.4334
31.2,0.1,0,0,0.51,0,6031.553624,0,112.6066964,180,-368.74692,-3.800003,0,2.4334
31.3,0.1,0,0,0.51,0,6029.989454,0,112.2266961,180,-368.50358,-3.800003,0,2.4334
31.4,0.1,0,0,0.51,0,6028.425284,0,111.8466958,180,-368.26024,-3.800003,0,2.4334
31.5,0.1,0,0,0.51,0,6026.861115,0,111.4666955,180,-368.0169,-3.800003,0,2.4334
31.6,0.1,0,0,0.51,0,6025.296945,0,111.0866952,180,-367.77356,-3.800003,0,2.4334
31.7,0.1,0,0,0.51,0,6023.732775,0,110.7066949,180,-367.53022,-3.800003,0,2.4334
31.8,0.1,0,0,0.51,0,6022.168605,0,110.3266946,180,-367.28688,-3.800003,0,2.4334
31.9,0.1,0,0,0.51,0,6020.604435,0,109.9466943,180,-367.04354,-3.800003,0,2.4334
32,0.1,0,0,0.51,0,6019.040265,0,109.566694,180,-366.8002,-3.800003,0,2.4334
32.1,0.1,0,0,0.51,0,6017.476095,0,109.1866937,180,-366.55686,-3.800003,0,2.4334
32.2,0.1,0,0,0.51,0,6015.911926,0,108.8066934,180,-366.31352,-3.800003,0,2.4334
32.3,0.1,0,0,0.51,0,6014.347756,0,108.4266931,180,-366.07018,-3.800003,0,2.4334
32.4,0.1,0,0,0.51,0,6012.783586,0,108.0466928,180,-365.82684,-3.800003,0,2.4334
32.5,0.1,0,0,0.51,0,6011.219416,0,107.6666925,180,-365.5835,-3.800003,0,2.4334
32.6,0.1,0,0,0.51,0,6009.655246,0,107.2866922,180,-365.34016,-3.800003,0,2.4334
32.7,0.1,0,0,0.51,0,6008.091076,0,106.9066919,180,-365.09682,-3.800003,0,2.4334
32.8,0.1,0,0,0.51,0,6006.526907,0,106.5266916,180,-364.85348,-3.800003,0,2.4334
32.9,0.1,0,0,0.51,0,6004.962737,0,106.1466913,180,-364.61014,-3.800003,0,2.4334
33,0.1,0,0,0.51,0,6003.398567,0,105.766691,180,-364.3668,-3.800003,0,2.4334
33.1,0.1,0,0,0.51,0,6001.834397,0,105.3866907,180,-364.12346,-3.800003,0,2.4334
33.2,0.1,0,0,0.51,0,6000.270227,0,105.0066904,180,-363.88012,-3.800003,0,2.4334
33.3,0.1,0,0,0.51,0,5998.706057,0,104.6266901,180,-363.63678,-3.800003,0,2.4334
33.4,0.1,0,0,0.51,0,5997.141887,0,104.2466898,180,-363.39344,-3.800003,0,2.4334
33.5,0.1,0,0,0.51,0,5995.577718,0,103.8666895,180,-363.1501,-3.800003,0,2.4334
33.6,0.1,0,0,0.51,0,5994.013548,0,103.4866892,180,-362.90676,-3.800003,0,2.4334
33.7,0.1,0,0,0.51,0,5992.449378,0,103.1066889,180,-362.66342,-3.800003,0,2.4334
33.8,0.1,0,0,0.51,0,5990.885208,0,102.7266886,180,-362.42008,-3.800003,0,2.4334
33.9,0.1,0,0,0.51,0,5989.321038,0,102.3466883,180,-362.17674,-3.800003,0,2.4334
34,0.1,0,0,0.51,0,5987.756868,0,101.966688,180,-361.9334,-3.800003,0,2.4334
34.1,0.1,0,0,0.51,0,5986.192699,0,101.5866877,180,-361.69006,-3.800003,0,2.4334
34.2,0.1,0,0,0.51,0,5984.628529,0,101.2066874,180,-361.44672,-3.800003,0,2.4334
34.3,0.1,0,0,0.51,0,5983.064359,0,100.8266871,180,-361.20338,-3.800003,0,2.4334
34.4,0.1,0,0,0.51,0,5981.500189,0,100.4466868,180,-360.96004,-3.800003,0,2.4334
34.5,0.1,0,0,0.51,0,5979.936019,0,100.0666865,180,-360.7167,-3.800003,0,2.4334
34.6,0.1,0,0,0.51,0,5978.371849,0,99.6866862,180,-360.47336,-3.800003,0,2.4334
34.7,0.1,0,0,0.51,0,5976.807679,0,99.3066859,180,-360.23002,-3.800003,0,2.4334
34.8,0.1,0,0,0.51,0,5975.24351,0,98.9266856,180,-359.98668,-3.800003,0,2.4334
34.9,0.1,0,0,0.51,0,5973.67934,0,98.5466853,180,-359.74334,-3.800003,0,2.4334
35,0.1,0,0,0.51,0,5972.11517,0,98.166685,180,-359.5,-3.800003,0,2.4334
35.1,0.1,0,0,0.51,0,5970.551,0,97.7866847,180,-359.25666,-3.800003,0,2.4334
35.2,0.1,0,0,0.51,0,5968.98683,0,97.4066844,180,-359.01332,-3.800003,0,2.4334
35.3,0.1,0,0,0.51,0,5967.42266,0,97.0266841,180,-358.76998,-3.800003,0,2.4334
35.4,0.1,0,0,0.51,0,5965.858491,0,96.6466838,180,-358.52664,-3.800003,0,2.4334
35.5,0.1,0,0,0.51,0,5964.294321,0,96.2666835,180,-358.2833,-3.800003,0,2.4334
35.6,0.1,0,0,0.51,0,5962.730151,0,95.8866832,180,-358.03996,-3.800003,0,2.4334
35.7,0.1,0,0,0.51,0,5961.165981,0,95.5066829,180,-357.79662,-3.800003,0,2.4334
35.8,0.1,0,0,0.51,0,5959.601811,0,95.1266826,180,-357.55328,-3.800003,0,2.4334
35.9,0.1,0,0,0.51,0,5958.037641,0,94.7466823,180,-357.30994,-3.800003,0,2.4334
36,0.1,0,0,0.51,0,5956.473471,0,94.366682,180,-357.0666,-3.800003,0,2.4334
36.1,0.1,0,0,0.51,0,5954.909302,0,93.9866817,180,-356.82326,-3.800003,0,2.4334
36.2,0.1,0,0,0.51,0,5953.345132,0,93.6066814,180,-356.57992,-3.800003,0,2.4334
36.3,0.1,0,0,0.51,0,5951.780962,0,93.2266811,180,-356.33658,-3.800003,0,2.4334
36.4,0.1,0,0,0.51,0,5950.216792,0,92.8466808,180,-356.09324,-3.800003,0,2.4334
36.5,0.1,0,0,0.51,0,5948.652622,0,92.4666805,180,-355.8499,-3.800003,0,2.4334
36.6,0.1,0,0,0.51,0,5947.088452,0,92.0866802,180,-355.60656,-3.800003,0,2.4334
36.7,0.1,0,0,0.51,0,5945.524283,0,91.7066799,180,-355.36322,-3.800003,0,2.4334
36.8,0.1,0,0,0.51,0,5943.960113,0,91.3266796,180,-355.11988,-3.800003,0,2.4334
36.9,0.1,0,0,0.51,0,5942.395943,0,90.9466793,180,-354.87654,-3.800003,0,2.4334
37,0.1,0,0,0.51,0,5940.831773,0,90.566679,180,-354.6332,-3.800003,0,2.4334
37.1,0.1,0,0,0.51,0,5939.267603,0,90.1866787,180,-354.38986,-3.800003,0,2.4334
37.2,0.1,0,0,0.51,0,5937.703433,0,89.8066784,180,-354.14652,-3.800003,0,2.4334
37.3,0.1,0,0,0.51,0,5936.139263,0,89.4266781,180,-353.90318,-3.800003,0,2.4334
37.4,0.1,0,0,0.51,0,5934.575094,0,89.0466778,180,-353.65984,-3.800003,0,2.4334
37.5,0.1,0,0,0.51,0,5933.010924,0,88.6666775,180,-353.4165,-3.800003,0,2.4334
37.6,0.1,0,0,0.51,0,5931.446754,0,88.2866772,180,-353.17316,-3.800003,0,2.4334
37.7,0.1,0,0,0.51,0,5929.882584,0,87.9066769,180,-352.92982,-3.800003,0,2.4334
37.8,0.1,0,0,0.51,0,5928.318414,0,87.5266766,180,-352.68648,-3.800003,0,2.4334
37.9,0.1,0,0,0.51,0,5926.754244,0,87.1466763,180,-352.44314,-3.800003,0,2.4334
38,0.1,0,0,0.51,0,5925.190075,0,86.766676,180,-352.1998,-3.800003,0,2.4334
38.1,0.1,0,0,0.51,0,5923.625905,0,86.3866757,180,-351.95646,-3.800003,0,2.4334
38.2,0.1,0,0,0.51,0,5922.061735,0,86.0066754,180,-351.71312,-3.800003,0,2.4334
38.3,0.1,0,0,0.51,0,5920.497565,0,85.6266751,180,-351.46978,-3.800003,0,2.4334
38.4,0.1,0,0,0.51,0,5918.933395,0,85.2466748,180,-351.22644,-3.800003,0,2.4334
38.5,0.1,0,0,0.51,0,5917.369225,0,84.8666745,180,-350.9831,-3.800003,0,2.4334
38.6,0.1,0,0,0.51,0,5915.805055,0,84.4866742,180,-350.73976,-3.800003,0,2.4334
38.7,0.1,0,0,0.51,0,5914.240886,0,84.1066739,180,-350.49642,-3.800003,0,2.4334
38.8,0.1,0,0,0.51,0,5912.676716,0,83.7266736,180,-350.25308,-3.800003,0,2.4334
38.9,0.1,0,0,0.51,0,5911.112546,0,83.3466733,180,-350.00974,-3.800003,0,2.4334
39,0.1,0,0,0.51,0,5909.548376,0,82.966673,180,-349.7664,-3.800003,0,2.4334
39.1,0.1,0,0,0.51,0,5907.984206,0,82.5866727,180,-349.52306,-3.800003,0,2.4334
39.2,0.1,0,0,0.51,0,5906.420036,0,82.2066724,180,-349.27972,-3.800003,0,2.4334
39.3,0.1,0,0,0.51,0,5904.855867,0,81.8266721,180,-349.03638,-3.800003,0,2.4334
39.4,0.1,0,0,0.51,0,5903.291697,0,81.4466718,180,-348.79304,-3.800003,0,2.4334
39.5,0.1,0,0,0.51,0,5901.727527,0,81.0666715,180,-348.5497,-3.800003,0,2.4334
39.6,0.1,0,0,0.51,0,5900.163357,0,80.6866712,180,-348.30636,-3.800003,0,2.4334
39.7,0.1,0,0,0.51,0,5898.599187,0,80.3066709,180,-348.06302,-3.800003,0,2.4334
39.8,0.1,0,0,0.51,0,5897.035017,0,79.9266706,180,-347.81968,-3.800003,0,2.4334
39.9,0.1,0,0,0.51,0,5895.470848,0,79.5466703,180,-347.57634,-3.800003,0,2.4334
40,0.1,0,0,0.51,0,5893.906678,0,79.16667,180,-347.333,-3.9,0,2.2666
40.1,0.1,0,0,0.51,0,5892.342508,0,78.77667,180,-347.10634,-3.9,0,2.2666
40.2,0.1,0,0,0.51,0,5890.778338,0,78.38667,180,-346.87968,-3.9,0,2.2666
40.3,0.1,0,0,0.51,0,5889.214168,0,77.99667,180,-346.65302,-3.9,0,2.2666
40.4,0.1,0,0,0.51,0,5887.649998,0,77.60667,180,-346.42636,-3.9,0,2.2666
40.5,0.1,0,0,0.51,0,5886.085828,0,77.21667,180,-346.1997,-3.9,0,2.2666
40.6,0.1,0,0,0.51,0,5884.521659,0,76.82667,180,-345.97304,-3.9,0,2.2666
40.7,0.1,0,0,0.51,0,5882.957489,0,76.43667,180,-345.74638,-3.9,0,2.2666
40.8,0.1,0,0,0.51,0,5881.393319,0,76.04667,180,-345.51972,-3.9,0,2.2666
40.9,0.1,0,0,0.51,0,5879.829149,0,75.65667,180,-345.29306,-3.9,0,2.2666
41,0.1,0,0,0.51,0,5878.264979,0,75.26667,180,-345.0664,-3.9,0,2.2666
41.1,0.1,0,0,0.51,0,5876.700809,0,74.87667,180,-344.83974,-3.9,0,2.2666
41.2,0.1,0,0,0.51,0,5875.13664,0,74.48667,180,-344.61308,-3.9,0,2.2666
41.3,0.1,0,0,0.51,0,5873.57247,0,74.09667,180,-344.38642,-3.9,0,2.2666
41.4,0.1,0,0,0.51,0,5872.0083,0,73.70667,180,-344.15976,-3.9,0,2.2666
41.5,0.1,0,0,0.51,0,5870.44413,0,73.31667,180,-343.9331,-3.9,0,2.2666
41.6,0.1,0,0,0.51,0,5868.87996,0,72.92667,180,-343.70644,-3.9,0,2.2666
41.7,0.1,0,0,0.51,0,5867.31579,0,72.53667,180,-343.47978,-3.9,0,2.2666
41.8,0.1,0,0,0.51,0,5865.75162,0,72.14667,180,-343.25312,-3.9,0,2.2666
41.9,0.1,0,0,0.51,0,5864.187451,0,71.75667,180,-343.02646,-3.9,0,2.2666
42,0.1,0,0,0.51,0,5862.623281,0,71.36667,180,-342.7998,-3.9,0,2.2666
42.1,0.1,0,0,0.51,0,5861.059111,0,70.97667,180,-342.57314,-3.9,0,2.2666
42.2,0.1,0,0,0.51,0,5859.494941,0,70.58667,180,-342.34648,-3.9,0,2.2666
42.3,0.1,0,0,0.51,0,5857.930771,0,70.19667,180,-342.11982,-3.9,0,2.2666
42.4,0.1,0,0,0.51,0,5856.366601,0,69.80667,180,-341.89316,-3.9,0,2.2666
42.5,0.1,0,0,0.51,0,5854.802432,0,69.41667,180,-341.6665,-3.9,0,2.2666
42.6,0.1,0,0,0.51,0,5853.238262,0,69.02667,180,-341.43984,-3.9,0,2.2666
42.7,0.1,0,0,0.51,0,5851.674092,0,68.63667,180,-341.21318,-3.9,0,2.2666
42.8,0.1,0,0,0.51,0,5850.109922,0,68.24667,180,-340.98652,-3.9,0,2.2666
42.9,0.1,0,0,0.51,0,5848.545752,0,67.85667,180,-340.75986,-3.9,0,2.2666
43,0.1,0,0,0.51,0,5846.981582,0,67.46667,180,-340.5332,-3.9,0,2.2666
43.1,0.1,0,0,0.51,0,5845.417412,0,67.07667,180,-340.30654,-3.9,0,2.2666
43.2,0.1,0,0,0.51,0,5843.853243,0,66.68667,180,-340.07988,-3.9,0,2.2666
43.3,0.1,0,0,0.51,0,5842.289073,0,66.29667,180,-339.85322,-3.9,0,2.2666
43.4,0.1,0,0,0.51,0,5840.724903,0,65.90667,180,-339.62656,-3.9,0,2.2666
43.5,0.1,0,0,0.51,0,5839.160733,0,65.51667,180,-339.3999,-3.9,0,2.2666
43.6,0.1,0,0,0.51,0,5837.596563,0,65.12667,180,-339.17324,-3.9,0,2.2666
43.7,0.1,0,0,0.51,0,5836.032393,0,64.73667,180,-338.94658,-3.9,0,2.2666
43.8,0.1,0,0,0.51,0,5834.468224,0,64.34667,180,-338.71992,-3.9,0,2.2666
43.9,0.1,0,0,0.51,0,5832.904054,0,63.95667,180,-338.49326,-3.9,0,2.2666
44,0.1,0,0,0.51,0,5831.339884,0,63.56667,180,-338.2666,-3.9,0,2.2666
44.1,0.1,0,0,0.51,0,5829.775714,0,63.17667,180,-338.03994,-3.9,0,2.2666
44.2,0.1,0,0,0.51,0,5828.211544,0,62.78667,180,-337.81328,-3.9,0,2.2666
44.3,0.1,0,0,0.51,0,5826.647374,0,62.39667,180,-337.58662,-3.9,0,2.2666
44.4,0.1,0,0,0.51,0,5825.083204,0,62.00667,180,-337.35996,-3.9,0,2.2666
44.5,0.1,0,0,0.51,0,5823.519035,0,61.61667,180,-337.1333,-3.9,0,2.2666
44.6,0.1,0,0,0.51,0,5821.954865,0,61.22667,180,-336.90664,-3.9,0,2.2666
44.7,0.1,0,0,0.51,0,5820.390695,0,60.83667,180,-336.67998,-3.9,0,2.2666
44.8,0.1,0,0,0.51,0,5818.826525,0,60.44667,180,-336.45332,-3.9,0,2.2666
44.9,0.1,0,0,0.51,0,5817.262355,0,60.05667,180,-336.22666,-3.9,0,2.2666
45,0.1,0,0,0.51,0,5815.698185,0,59.66667,180,-336,-3.9,0,2.2666
45.1,0.1,0,0,0.51,0,5814.134016,0,59.27667,180,-335.77334,-3.9,0,2.2666
45.2,0.1,0,0,0.51,0,5812.569846,0,58.88667,180,-335.54668,-3.9,0,2.2666
45.3,0.1,0,0,0.51,0,5811.005676,0,58.49667,180,-335.32002,-3.9,0,2.2666
45.4,0.1,0,0,0.51,0,5809.441506,0,58.10667,180,-335.09336,-3.9,0,2.2666
45.5,0.1,0,0,0.51,0,5807.877336,0,57.71667,180,-334.8667,-3.9,0,2.2666
45.6,0.1,0,0,0.51,0,5806.313166,0,57.32667,180,-334.64004,-3.9,0,2.2666
45.7,0.1,0,0,0.51,0,5804.748996,0,56.93667,180,-334.41338,-3.9,0,2.2666
45.8,0.1,0,0,0.51,0,5803.184827,0,56.54667,180,-334.18672,-3.9,0,2.2666
45.9,0.1,0,0,0.51,0,5801.620657,0,56.15667,180,-333.96006,-3.9,0,2.2666
46,0.1,0,0,0.51,0,5800.056487,0,55.76667,180,-333.7334,-3.9,0,2.2666
46.1,0.1,0,0,0.51,0,5798.492317,0,55.37667,180,-333.50674,-3.9,0,2.2666
46.2,0.1,0,0,0.51,0,5796.928147,0,54.98667,180,-333.28008,-3.9,0,2.2666
46.3,0.1,0,0,0.51,0,5795.363977,0,54.59667,180,-333.05342,-3.9,0,2.2666
46.4,0.1,0,0,0.51,0,5793.799808,0,54.20667,180,-332.82676,-3.9,0,2.2666
46.5,0.1,0,0,0.51,0,5792.235638,0,53.81667,180,-332.6001,-3.9,0,2.2666
46.6,0.1,0,0,0.51,0,5790.671468,0,53.42667,180,-332.37344,-3.9,0,2.2666
46.7,0.1,0,0,0.51,0,5789.107298,0,53.03667,180,-332.14678,-3.9,0,2.2666
46.8,0.1,0,0,0.51,0,5787.543128,0,52.64667,180,-331.92012,-3.9,0,2.2666
46.9,0.1,0,0,0.51,0,5785.978958,0,52.25667,180,-331.69346,-3.9,0,2.2666
47,0.1,0,0,0.51,0,5784.414788,0,51.86667,180,-331.4668,-3.9,0,2.2666
47.1,0.1,0,0,0.51,0,5782.850619,0,51.47667,180,-331.24014,-3.9,0,2.2666
47.2,0.1,0,0,0.51,0,5781.286449,0,51.08667,180,-331.01348,-3.9,0,2.2666
47.3,0.1,0,0,0.51,0,5779.722279,0,50.69667,180,-330.78682,-3.9,0,2.2666
47.4,0.1,0,0,0.51,0,5778.158109,0,50.30667,180,-330.56016,-3.9,0,2.2666
47.5,0.1,0,0,0.51,0,5776.593939,0,49.91667,180,-330.3335,-3.9,0,2.2666
47.6,0.1,0,0,0.51,0,5775.029769,0,49.52667,180,-330.10684,-3.9,0,2.2666
47.7,0.1,0,0,0.51,0,5773.4656,0,49.13667,180,-329.88018,-3.9,0,2.2666
47.8,0.1,0,0,0.51,0,5771.90143,0,48.74667,180,-329.65352,-3.9,0,2.2666
47.9,0.1,0,0,0.51,0,5770.33726,0,48.35667,180,-329.42686,-3.9,0,2.2666
48,0.1,0,0,0.51,0,5768.77309,0,47.96667,180,-329.2002,-3.9,0,2.2666
48.1,0.1,0,0,0.51,0,5767.20892,0,47.57667,180,-328.97354,-3.9,0,2.2666
48.2,0.1,0,0,0.51,0,5765.64475,0,47.18667,180,-328.74688,-3.9,0,2.2666
48.3,0.1,0,0,0.51,0,5764.08058,0,46.79667,180,-328.52022,-3.9,0,2.2666
48.4,0.1,0,0,0.51,0,5762.516411,0,46.40667,180,-328.29356,-3.9,0,2.2666
48.5,0.1,0,0,0.51,0,5760.952241,0,46.01667,180,-328.0669,-3.9,0,2.2666
48.6,0.1,0,0,0.51,0,5759.388071,0,45.62667,180,-327.84024,-3.9,0,2.2666
48.7,0.1,0,0,0.51,0,5757.823901,0,45.23667,180,-327.61358,-3.9,0,2.2666
48.8,0.1,0,0,0.51,0,5756.259731,0,44.84667,180,-327.38692,-3.9,0,2.2666
48.9,0.1,0,0,0.51,0,5754.695561,0,44.45667,180,-327.16026,-3.9,0,2.2666
49,0.1,0,0,0.51,0,5753.131392,0,44.06667,180,-326.9336,-3.9,0,2.2666
49.1,0.1,0,0,0.51,0,5751.567222,0,43.67667,180,-326.70694,-3.9,0,2.2666
49.2,0.1,0,0,0.51,0,5750.003052,0,43.28667,180,-326.48028,-3.9,0,2.2666
49.3,0.1,0,0,0.51,0,5748.438882,0,42.89667,180,-326.25362,-3.9,0,2.2666
49.4,0.1,0,0,0.51,0,5746.874712,0,42.50667,180,-326.02696,-3.9,0,2.2666
49.5,0.1,0,0,0.51,0,5745.310542,0,42.11667,180,-325.8003,-3.9,0,2.2666
49.6,0.1,0,0,0.51,0,5743.746373,0,41.72667,180,-325.57364,-3.9,0,2.2666
49.7,0.1,0,0,0.51,0,5742.182203,0,41.33667,180,-325.34698,-3.9,0,2.2666
49.8,0.1,0,0,0.51,0,5740.618033,0,40.94667,180,-325.12032,-3.9,0,2.2666
49.9,0.1,0,0,0.51,0,5739.053863,0,40.55667,180,-324.89366,-3.9,0,2.2666
50,0.1,0,0,0.51,0,5737.489693,0,40.16667,180,-324.667,-4.283334,0,0.5667
50.1,0.1,0,0,0.51,0,5737.489693,0,39.7383366,180,-324.61033,-4.283334,0,0.5667
50.2,0.1,0,0,0.51,0,5737.489693,0,39.3100032,180,-324.55366,-4.283334,0,0.5667
50.3,0.1,0,0,0.51,0,5737.489693,0,38.8816698,180,-324.49699,-4.283334,0,0.5667
50.4,0.1,0,0,0.51,0,5737.489693,0,38.4533364,180,-324.44032,-4.283334,0,0.5667
50.5,0.1,0,0,0.51,0,5737.489693,0,38.025003,180,-324.38365,-4.283334,0,0.5667
50.6,0.1,0,0,0.51,0,5737.489693,0,37.5966696,180,-324.32698,-4.283334,0,0.5667
50.7,0.1,0,0,0.51,0,5737.489693,0,37.1683362,180,-324.27031,-4.283334,0,0.5667
50.8,0.1,0,0,0.51,0,5737.489693,0,36.7400028,180,-324.21364,-4.283334,0,0.5667
50.9,0.1,0,0,0.51,0,5737.489693,0,36.3116694,180,-324.15697,-4.283334,0,0.5667
51,0.1,0,0,0.51,0,5737.489693,0,35.883336,180,-324.1003,-4.283334,0,0.5667
51.1,0.1,0,0,0.51,0,5737.489693,0,35.4550026,180,-324.04363,-4.283334,0,0.5667
51.2,0.1,0,0,0.51,0,5737.489693,0,35.0266692,180,-323.98696,-4.283334,0,0.5667
51.3,0.1,0,0,0.51,0,5737.489693,0,34.5983358,180,-323.93029,-4.283334,0,0.5667
51.4,0.1,0,0,0.51,0,5737.489693,0,34.1700024,180,-323.87362,-4.283334,0,0.5667
51.5,0.1,0,0,0.51,0,5737.489693,0,33.741669,180,-323.81695,-4.283334,0,0.5667
51.6,0.1,0,0,0.51,0,5737.489693,0,33.3133356,180,-323.76028,-4.283334,0,0.5667
51.7,0.1,0,0,0.51,0,5737.489693,0,32.8850022,180,-323.70361,-4.283334,0,0.5667
51.8,0.1,0,0,0.51,0,5737.489693,0,32.4566688,180,-323.64694,-4.283334,0,0.5667
51.9,0.1,0,0,0.51,0,5737.489693,0,32.0283354,180,-323.59027,-4.283334,0,0.5667
52,0.1,0,0,0.51,0,5737.489693,0,31.600002,180,-323.5336,-4.283334,0,0.5667
52.1,0.1,0,0,0.51,0,5737.489693,0,31.1716686,180,-323.47693,-4.283334,0,0.5667
52.2,0.1,0,0,0.51,0,5737.489693,0,30.7433352,180,-323.42026,-4.283334,0,0.5667
52.3,0.1,0,0,0.51,0,5737.489693,0,30.3150018,180,-323.36359,-4.283334,0,0.5667
52.4,0.1,0,0,0.51,0,5737.489693,0,29.8866684,180,-323.30692,-4.283334,0,0.5667
52.5,0.1,0,0,0.51,0,5737.489693,0,29.458335,180,-323.25025,-4.283334,0,0.5667
52.6,0.1,0,0,0.51,0,5737.489693,0,29.0300016,180,-323.19358,-4.283334,0,0.5667
52.7,0.1,0,0,0.51,0,5737.489693,0,28.6016682,180,-323.13691,-4.283334,0,0.5667
52.8,0.1,0,0,0.51,0,5737.489693,0,28.1733348,180,-323.08024,-4.283334,0,0.5667
52.9,0.1,0,0,0.51,0,5737.489693,0,27.7450014,180,-323.02357,-4.283334,0,0.5667
53,0.1,0,0,0.51,0,5737.489693,0,27.316668,180,-322.9669,-4.283334,0,0.5667
53.1,0.1,0,0,0.51,0,5737.489693,0,26.8883346,180,-322.91023,-4.283334,0,0.5667
53.2,0.1,0,0,0.51,0,5737.489693,0,26.4600012,180,-322.85356,-4.283334,0,0.5667
53.3,0.1,0,0,0.51,0,5737.489693,0,26.0316678,180,-322.79689,-4.283334,0,0.5667
53.4,0.1,0,0,0.51,0,5737.489693,0,25.6033344,180,-322.74022,-4.283334,0,0.5667
53.5,0.1,0,0,0.51,0,5737.489693,0,25.175001,180,-322.68355,-4.283334,0,0.5667
53.6,0.1,0,0,0.51,0,5737.489693,0,24.7466676,180,-322.62688,-4.283334,0,0.5667
53.7,0.1,0,0,0.51,0,5737.489693,0,24.3183342,180,-322.57021,-4.283334,0,0.5667
53.8,0.1,0,0,0.51,0,5737.489693,0,23.8900008,180,-322.51354,-4.283334,0,0.5667
53.9,0.1,0,0,0.51,0,5737.489693,0,23.4616674,180,-322.45687,-4.283334,0,0.5667
54,0.1,0,0,0.51,0,5737.489693,0,23.033334,180,-322.4002,-4.283334,0,0.5667
54.1,0.1,0,0,0.51,0,5737.489693,0,22.6050006,180,-322.34353,-4.283334,0,0.5667
54.2,0.1,0,0,0.51,0,5737.489693,0,22.1766672,180,-322.28686,-4.283334,0,0.5667
54.3,0.1,0,0,0.51,0,5737.489693,0,21.7483338,180,-322.23019,-4.283334,0,0.5667
54.4,0.1,0,0,0.51,0,5737.489693,0,21.3200004,180,-322.17352,-4.283334,0,0.5667
54.5,0.1,0,0,0.51,0,5737.489693,0,20.891667,180,-322.11685,-4.283334,0,0.5667
54.6,0.1,0,0,0.51,0,5737.489693,0,20.4633336,180,-322.06018,-4.283334,0,0.5667
54.7,0.1,0,0,0.51,0,5737.489693,0,20.0350002,180,-322.00351,-4.283334,0,0.5667
54.8,0.1,0,0,0.51,0,5737.489693,0,19.6066668,180,-321.94684,-4.283334,0,0.5667
54.9,0.1,0,0,0.51,0,5737.489693,0,19.1783334,180,-321.89017,-4.283334,0,0.5667
55,0.1,0,0,0.51,0,5737.489693,0,18.75,180,-321.8335,-4.283334,0,0.5667
55.1,0.1,0,0,0.51,0,5737.489693,0,18.3216666,180,-321.77683,-4.283334,0,0.5667
55.2,0.1,0,0,0.51,0,5737.489693,0,17.8933332,180,-321.72016,-4.283334,0,0.5667
55.3,0.1,0,0,0.51,0,5737.489693,0,17.4649998,180,-321.66349,-4.283334,0,0.5667
55.4,0.1,0,0,0.51,0,5737.489693,0,17.0366664,180,-321.60682,-4.283334,0,0.5667
55.5,0.1,0,0,0.51,0,5737.489693,0,16.608333,180,-321.55015,-4.283334,0,0.5667
55.6,0.1,0,0,0.51,0,5737.489693,0,16.1799996,180,-321.49348,-4.283334,0,0.5667
55.7,0.1,0,0,0.51,0,5737.489693,0,15.7516662,180,-321.43681,-4.283334,0,0.5667
55.8,0.1,0,0,0.51,0,5737.489693,0,15.3233328,180,-321.38014,-4.283334,0,0.5667
55.9,0.1,0,0,0.51,0,5737.489693,0,14.8949994,180,-321.32347,-4.283334,0,0.5667
56,0.1,0,0,0.51,0,5737.489693,0,14.466666,180,-321.2668,-4.283334,0,0.5667
56.1,0.1,0,0,0.51,0,5737.489693,0,14.0383326,180,-321.21013,-4.283334,0,0.5667
56.2,0.1,0,0,0.51,0,5737.489693,0,13.6099992,180,-321.15346,-4.283334,0,0.5667
56.3,0.1,0,0,0.51,0,5737.489693,0,13.1816658,180,-321.09679,-4.283334,0,0.5667
56.4,0.1,0,0,0.51,0,5737.489693,0,12.7533324,180,-321.04012,-4.283334,0,0.5667
56.5,0.1,0,0,0.51,0,5737.489693,0,12.324999,180,-320.98345,-4.283334,0,0.5667
56.6,0.1,0,0,0.51,0,5737.489693,0,11.8966656,180,-320.92678,-4.283334,0,0.5667
56.7,0.1,0,0,0.51,0,5737.489693,0,11.4683322,180,-320.87011,-4.283334,0,0.5667
56.8,0.1,0,0,0.51,0,5737.489693,0,11.0399988,180,-320.81344,-4.283334,0,0.5667
56.9,0.1,0,0,0.51,0,5737.489693,0,10.6116654,180,-320.75677,-4.283334,0,0.5667
57,0.1,0,0,0.51,0,5737.489693,0,10.183332,180,-320.7001,-4.283334,0,0.5667
57.1,0.1,0,0,0.51,0,5737.489693,0,9.7549986,180,-320.64343,-4.283334,0,0.5667
57.2,0.1,0,0,0.51,0,5737.489693,0,9.3266652,180,-320.58676,-4.283334,0,0.5667
57.3,0.1,0,0,0.51,0,5737.489693,0,8.8983318,180,-320.53009,-4.283334,0,0.5667
57.4,0.1,0,0,0.51,0,5737.489693,0,8.4699984,180,-320.47342,-4.283334,0,0.5667
57.5,0.1,0,0,0.51,0,5737.489693,0,8.041665,180,-320.41675,-4.283334,0,0.5667
57.6,0.1,0,0,0.51,0,5737.489693,0,7.6133316,180,-320.36008,-4.283334,0,0.5667
57.7,0.1,0,0,0.51,0,5737.489693,0,7.1849982,180,-320.30341,-4.283334,0,0.5667
57.8,0.1,0,0,0.51,0,5737.489693,0,6.7566648,180,-320.24674,-4.283334,0,0.5667
57.9,0.1,0,0,0.51,0,5737.489693,0,6.3283314,180,-320.19007,-4.283334,0,0.5667
58,0.1,0,0,0.51,0,5737.489693,0,5.899998,180,-320.1334,-4.283334,0,0.5667
58.1,0.1,0,0,0.51,0,5737.489693,0,5.4716646,180,-320.07673,-4.283334,0,0.5667
58.2,0.1,0,0,0.51,0,5737.489693,0,5.0433312,180,-320.02006,-4.283334,0,0.5667
58.3,0.1,0,0,0.51,0,5737.489693,0,4.6149978,180,-319.96339,-4.283334,0,0.5667
58.4,0.1,0,0,0.51,0,5737.489693,0,4.1866644,180,-319.90672,-4.283334,0,0.5667
58.5,0.1,0,0,0.51,0,5737.489693,0,3.758331,180,-319.85005,-4.283334,0,0.5667
58.6,0.1,0,0,0.51,0,5737.489693,0,3.3299976,180,-319.79338,-4.283334,0,0.5667
58.7,0.1,0,0,0.51,0,5737.489693,0,2.9016642,180,-319.73671,-4.283334,0,0.5667
58.8,0.1,0,0,0.51,0,5737.489693,0,2.4733308,180,-319.68004,-4.283334,0,0.5667
58.9,0.1,0,0,0.51,0,5737.489693,0,2.0449974,180,-319.62337,-4.283334,0,0.5667
59,0.1,0,0,0.51,0,5737.489693,0,1.616664,180,-319.5667,-4.283334,0,0.5667
59.1,0.1,0,0,0.51,0,5737.489693,0,1.1883306,180,-319.51003,-4.283334,0,0.5667
59.2,0.1,0,0,0.51,0,5737.489693,0,0.7599972,180,-319.45336,-4.283334,0,0.5667
59.3,0.1,0,0,0.51,0,5737.489693,0,0.3316638,180,-319.39669,-4.283334,0,0.5667
59.4,0.1,0,0,0.51,0,5737.489693,0,-0.0966696,180,-319.34002,-4.283334,0,0.5667
59.5,0.1,0,0,0.51,0,5737.489693,0,-0.525003,180,-319.28335,-4.283334,0,0.5667
59.6,0.1,0,0,0.51,0,5737.489693,0,-0.9533364,180,-319.22668,-4.283334,0,0.5667
59.7,0.1,0,0,0.51,0,5737.489693,0,-1.3816698,180,-319.17001,-4.283334,0,0.5667
59.8,0.1,0,0,0.51,0,5737.489693,0,-1.8100032,180,-319.11334,-4.283334,0,0.5667
59.9,0.1,0,0,0.51,0,5737.489693,0,-2.2383366,180,-319.05667,-4.283334,0,0.5667
60,0.1,0,0,0.51,0,5737.489693,0,-2.66667,180,-319,-4.033333,0,2.8333
