time,step-size,{inspector}.inspectorInstance.uav1goToNext,{inspector}.inspectorInstance.uav2goToNext,{inspector}.inspectorInstance.uav3goToNext,{inspector}.inspectorInstance.uav4goToNext,{uavCont}.controller1.onStation,{uavCont}.controller1.pitchOut,{uavCont}.controller1.rollOut,{uavCont}.controller1.throttleOut,{uavCont}.controller1.yawOut,{uavCont}.controller2.onStation,{uavCont}.controller2.pitchOut,{uavCont}.controller2.rollOut,{uavCont}.controller2.throttleOut,{uavCont}.controller2.yawOut,{uavCont}.controller3.onStation,{uavCont}.controller3.pitchOut,{uavCont}.controller3.rollOut,{uavCont}.controller3.throttleOut,{uavCont}.controller3.yawOut,{uavCont}.controller4.onStation,{uavCont}.controller4.pitchOut,{uavCont}.controller4.rollOut,{uavCont}.controller4.throttleOut,{uavCont}.controller4.yawOut,{uav}.uav1.batteryCharge,{uav}.uav1.currentPitch,{uav}.uav1.currentRoll,{uav}.uav1.currentYaw,{uav}.uav1.posX,{uav}.uav1.posY,{uav}.uav1.posZ,{uav}.uav1.velX,{uav}.uav1.velY,{uav}.uav1.velZ,{uav}.uav2.batteryCharge,{uav}.uav2.currentPitch,{uav}.uav2.currentRoll,{uav}.uav2.currentYaw,{uav}.uav2.posX,{uav}.uav2.posY,{uav}.uav2.posZ,{uav}.uav2.velX,{uav}.uav2.velY,{uav}.uav2.velZ,{uav}.uav3.batteryCharge,{uav}.uav3.currentPitch,{uav}.uav3.currentRoll,{uav}.uav3.currentYaw,{uav}.uav3.posX,{uav}.uav3.posY,{uav}.uav3.posZ,{uav}.uav3.velX,{uav}.uav3.velY,{uav}.uav3.velZ,{uav}.uav4.batteryCharge,{uav}.uav4.currentPitch,{uav}.uav4.currentRoll,{uav}.uav4.currentYaw,{uav}.uav4.posX,{uav}.uav4.posY,{uav}.uav4.posZ,{uav}.uav4.velX,{uav}.uav4.velY,{uav}.uav4.velZ
0,0,0,0,0,0,0,0,0,0,0,0,0,0,0,0,0,0,0,0,0,0,0,0,0,0,6480,0,0,0,0,180,0,10,0,0,6480,0,0,0,0,180,0,-10,0,0,6480,0,0,0,0,180,0,0,0,10,6480,0,0,0,0,180,0,0,0,-10
0.1,0.1,1,1,1,1,0,0,0,0,0,0,0,0,0,0,0,0,0,0,0,0,0,0,0,0,6485,0,0,1,2,180,0,10,0,0,6485,0,0,1,-2,180,0,-10,0,0,6485,0,0,1,0,180,2,0,0,10,6485,0,0,1,0,180,-2,0,0,-10
0.3,0.2,1,1,1,1,0,0,-0.2,0.51,0,0,0,-0.2,0.51,0,0,0,-0.2,0.51,0,0,0,-0.2,0.51,0,6485,0,0,2,4,180,0,10,0,0,6485,0,0,2,-4,180,0,-10,0,0,6485,0,0,2,0,180,4,0,0,10,6485,0,0,2,0,180,-4,0,0,-10
0.5,0.2,1,1,1,1,0,0,-0.2,0.51,0,0,0,-0.2,0.51,0,0,0,-0.2,0.51,0,0,0,-0.2,0.51,0,6482.556802,0,0,3,6,180,0,10,0,0,6482.556802,0,0,3,-6,180,0,-10,0,0,6482.556802,0,0,3,0,180,6,0,0,10,6482.556802,0,0,3,0,180,-6,0,0,-10
0.7,0.2,1,1,1,1,0,0,0.2,0.51,0,0,0,0.2,0.51,0,0,0,0.2,0.51,0,0,0,0.2,0.51,0,6479.959778,0,0,4,8,180,0,10,0,0,6479.959778,0,0,4,-8,180,0,-10,0,0,6479.959778,0,0,4,0,180,8,0,0,10,6479.959778,0,0,4,0,180,-8,0,0,-10
0.9,0.2,1,1,1,1,0,0,0.2,0.51,0,0,0,0.2,0.51,0,0,0,0.2,0.51,0,0,0,0.2,0.51,0,6477.564264,0,0,5,10,180,0,10,0,0,6477.564264,0,0,5,-10,180,0,-10,0,0,6477.564264,0,0,5,0,180,10,0,0,10,6477.564264,0,0,5,0,180,-10,0,0,-10
1.1,0.2,1,1,1,1,0,0,0.2,0.51,0,0,0,0.2,0.51,0,0,0,0.2,0.51,0,0,0,0.2,0.51,0,6480.002674,0,0,6,12,180,0,10,0,0,6480.002674,0,0,6,-12,180,0,-10,0,0,6480.002674,0,0,6,0,180,12,0,0,10,6480.002674,0,0,6,0,180,-12,0,0,-10
1.3,0.2,1,1,1,1,0,0,0.2,0.51,0,0,0,0.2,0.51,0,0,0,0.2,0.51,0,0,0,0.2,0.51,0,6477.383936,0,0,7,14,180,0,10,0,0,6477.383936,0,0,7,-14,180,0,-10,0,0,6477.383936,0,0,7,0,180,14,0,0,10,6477.383936,0,0,7,0,180,-14,0,0,-10
1.5,0.2,1,1,1,1,0,0,0.2,0.51,0,0,0,0.2,0.51,0,0,0,0.2,0.51,0,0,0,0.2,0.51,0,6474.754014,0,0,8,16,180,0,10,0,0,6474.754014,0,0,8,-16,180,0,-10,0,0,6474.754014,0,0,8,0,180,16,0,0,10,6474.754014,0,0,8,0,180,-16,0,0,-10
1.7,0.2,1,1,1,1,0,0,-0.2,0.51,0,0,0,-0.2,0.51,0,0,0,-0.2,0.51,0,0,0,-0.2,0.51,0,6472.121844,0,0,9,18,180,0,10,0,0,6472.121844,0,0,9,-18,180,0,-10,0,0,6472.121844,0,0,9,0,180,18,0,0,10,6472.121844,0,0,9,0,180,-18,0,0,-10
1.9,0.2,1,1,1,1,0,0,-0.2,0.51,0,0,0,-0.2,0.51,0,0,0,-0.2,0.51,0,0,0,-0.2,0.51,0,6469.724641,0,0,10,20,180,0,10,0,0,6469.724641,0,0,10,-20,180,0,-10,0,0,6469.724641,0,0,10,0,180,20,0,0,10,6469.724641,0,0,10,0,180,-20,0,0,-10
2.1,0.2,1,1,1,1,0,0,-0.2,0.51,0,0,0,-0.2,0.51,0,0,0,-0.2,0.51,0,0,0,-0.2,0.51,0,6467.164563,0,0,11,22,180,0,10,0,0,6467.164563,0,0,11,-22,180,0,-10,0,0,6467.164563,0,0,11,0,180,22,0,0,10,6467.164563,0,0,11,0,180,-22,0,0,-10
2.3,0.2,1,1,1,1,0,0,-0.2,0.51,0,0,0,-0.2,0.51,0,0,0,-0.2,0.51,0,0,0,-0.2,0.51,0,6464.546114,0,0,12,24,180,0,10,0,0,6464.546114,0,0,12,-24,180,0,-10,0,0,6464.546114,0,0,12,0,180,24,0,0,10,6464.546114,0,0,12,0,180,-24,0,0,-10
2.5,0.2,1,1,1,1,0,0,-0.2,0.51,0,0,0,-0.2,0.51,0,0,0,-0.2,0.51,0,0,0,-0.2,0.51,0,6461.91625,0,0,13,26,180,0,10,0,0,6461.91625,0,0,13,-26,180,0,-10,0,0,6461.91625,0,0,13,0,180,26,0,0,10,6461.91625,0,0,13,0,180,-26,0,0,-10
2.7,0.2,1,1,1,1,0,0,-0.2,0.51,0,0,0,-0.2,0.51,0,0,0,-0.2,0.51,0,0,0,-0.2,0.51,0,6459.284092,0,0,14,28,180,0,10,0,0,6459.284092,0,0,14,-28,180,0,-10,0,0,6459.284092,0,0,14,0,180,28,0,0,10,6459.284092,0,0,14,0,180,-28,0,0,-10
2.9,0.2,1,1,1,1,0,0,0.2,0.51,0,0,0,0.2,0.51,0,0,0,0.2,0.51,0,0,0,0.2,0.51,0,6456.651471,0,0,15,30,180,0,10,0,0,6456.651471,0,0,15,-30,180,0,-10,0,0,6456.651471,0,0,15,0,180,30,0,0,10,6456.651471,0,0,15,0,180,-30,0,0,-10
3.1,0.2,1,1,1,1,0,0,0.2,0.51,0,0,0,0.2,0.51,0,0,0,0.2,0.51,0,0,0,0.2,0.51,0,6454.254239,0,0,16,32,180,0,10,0,0,6454.254239,0,0,16,-32,180,0,-10,0,0,6454.254239,0,0,16,0,180,32,0,0,10,6454.254239,0,0,16,0,180,-32,0,0,-10
3.3,0.2,1,1,1,1,0,0,0.2,0.51,0,0,0,0.2,0.51,0,0,0,0.2,0.51,0,0,0,0.2,0.51,0,6451.694181,0,0,17,34,180,0,10,0,0,6451.694181,0,0,17,-34,180,0,-10,0,0,6451.694181,0,0,17,0,180,34,0,0,10,6451.694181,0,0,17,0,180,-34,0,0,-10
3.5,0.2,1,1,1,1,0,0,0.2,0.51,0,0,0,0.2,0.51,0,0,0,0.2,0.51,0,0,0,0.2,0.51,0,6449.075737,0,0,18,36,180,0,10,0,0,6449.075737,0,0,18,-36,180,0,-10,0,0,6449.075737,0,0,18,0,180,36,0,0,10,6449.075737,0,0,18,0,180,-36,0,0,-10
3.7,0.2,1,1,1,1,0,0,0.2,0.51,0,0,0,0.2,0.51,0,0,0,0.2,0.51,0,0,0,0.2,0.51,0,6446.445873,0,0,19,38,180,0,10,0,0,6446.445873,0,0,19,-38,180,0,-10,0,0,6446.445873,0,0,19,0,180,38,0,0,10,6446.445873,0,0,19,0,180,-38,0,0,-10
3.9,0.2,1,1,1,1,0,0,0.2,0.51,0,0,0,0.2,0.51,0,0,0,0.2,0.51,0,0,0,0.2,0.51,0,6443.813715,0,0,20,40,180,0,10,0,0,6443.813715,0,0,20,-40,180,0,-10,0,0,6443.813715,0,0,20,0,180,40,0,0,10,6443.813715,0,0,20,0,180,-40,0,0,-10
4.1,0.2,1,1,1,1,0,0,-0.2,0.37,0,0,0,-0.2,0.37,0,0,0,-0.2,0.37,0,0,0,-0.2,0.37,0,6441.181094,0,0,21,42,180,0,10,0,0,6441.181094,0,0,21,-42,180,0,-10,0,0,6441.181094,0,0,21,0,180,42,0,0,10,6441.181094,0,0,21,0,180,-42,0,0,-10
4.3,0.2,1,1,1,1,0,0,-0.2,0.37,0,0,0,-0.2,0.37,0,0,0,-0.2,0.37,0,0,0,-0.2,0.37,0,6439.441926,0,0,22,44,180,0,10,0,0,6439.441926,0,0,22,-44,180,0,-10,0,0,6439.441926,0,0,22,0,180,44,0,0,10,6439.441926,0,0,22,0,180,-44,0,0,-10
4.5,0.2,1,1,1,1,0,0,-0.2,0.37,0,0,0,-0.2,0.37,0,0,0,-0.2,0.37,0,0,0,-0.2,0.37,0,6437.584629,0,0,23,46,180,0,10,0,0,6437.584629,0,0,23,-46,180,0,-10,0,0,6437.584629,0,0,23,0,180,46,0,0,10,6437.584629,0,0,23,0,180,-46,0,0,-10
4.7,0.2,1,1,1,1,0,0,-0.2,0.37,0,0,0,-0.2,0.37,0,0,0,-0.2,0.37,0,0,0,-0.2,0.37,0,6435.684973,0,0,24,48,180,0,10,0,0,6435.684973,0,0,24,-48,180,0,-10,0,0,6435.684973,0,0,24,0,180,48,0,0,10,6435.684973,0,0,24,0,180,-48,0,0,-10
4.9,0.2,1,1,1,1,0,0,-0.2,0.37,0,0,0,-0.2,0.37,0,0,0,-0.2,0.37,0,0,0,-0.2,0.37,0,6433.777033,0,0,25,50,180,0,10,0,0,6433.777033,0,0,25,-50,180,0,-10,0,0,6433.777033,0,0,25,0,180,50,0,0,10,6433.777033,0,0,25,0,180,-50,0,0,-10
5.1,0.2,1,1,1,1,0,0,-0.2,0.37,0,0,0,-0.2,0.37,0,0,0,-0.2,0.37,0,0,0,-0.2,0.37,0,6431.867428,0,0,26,52,180,0,10,0,0,6431.867428,0,0,26,-52,180,0,-10,0,0,6431.867428,0,0,26,0,180,52,0,0,10,6431.867428,0,0,26,0,180,-52,0,0,-10
5.3,0.2,1,1,1,1,0,0,-0.2,0.37,0,0,0,-0.2,0.37,0,0,0,-0.2,0.37,0,0,0,-0.2,0.37,0,6429.957487,0,0,27,54,180,0,10,0,0,6429.957487,0,0,27,-54,180,0,-10,0,0,6429.957487,0,0,27,0,180,54,0,0,10,6429.957487,0,0,27,0,180,-54,0,0,-10
5.5,0.2,1,1,1,1,0,0,0.2,0.37,0,0,0,0.2,0.37,0,0,0,0.2,0.37,0,0,0,0.2,0.37,0,6428.047479,0,0,28,56,180,0,10,0,0,6428.047479,0,0,28,-56,180,0,-10,0,0,6428.047479,0,0,28,0,180,56,0,0,10,6428.047479,0,0,28,0,180,-56,0,0,-10
5.7,0.2,1,1,1,1,0,0,0.2,0.37,0,0,0,0.2,0.37,0,0,0,0.2,0.37,0,0,0,0.2,0.37,0,6426.308306,0,0,29,58,180,0,10,0,0,6426.308306,0,0,29,-58,180,0,-10,0,0,6426.308306,0,0,29,0,180,58,0,0,10,6426.308306,0,0,29,0,180,-58,0,0,-10
5.9,0.2,1,1,1,1,0,0,0.2,0.37,0,0,0,0.2,0.37,0,0,0,0.2,0.37,0,0,0,0.2,0.37,0,6424.451012,0,0,30,60,180,0,10,0,0,6424.451012,0,0,30,-60,180,0,-10,0,0,6424.451012,0,0,30,0,180,60,0,0,10,6424.451012,0,0,30,0,180,-60,0,0,-10
6.1,0.2,1,1,1,1,0,0,0.2,0.37,0,0,0,0.2,0.37,0,0,0,0.2,0.37,0,0,0,0.2,0.37,0,6422.551357,0,0,31,62,180,0,10,0,0,6422.551357,0,0,31,-62,180,0,-10,0,0,6422.551357,0,0,31,0,180,62,0,0,10,6422.551357,0,0,31,0,180,-62,0,0,-10
6.3,0.2,1,1,1,1,0,0,0.2,0.37,0,0,0,0.2,0.37,0,0,0,0.2,0.37,0,0,0,0.2,0.37,0,6420.643417,0,0,32,64,180,0,10,0,0,6420.643417,0,0,32,-64,180,0,-10,0,0,6420.643417,0,0,32,0,180,64,0,0,10,6420.643417,0,0,32,0,180,-64,0,0,-10
6.5,0.2,1,1,1,1,0,0,0.2,0.37,0,0,0,0.2,0.37,0,0,0,0.2,0.37,0,0,0,0.2,0.37,0,6418.733812,0,0,33,66,180,0,10,0,0,6418.733812,0,0,33,-66,180,0,-10,0,0,6418.733812,0,0,33,0,180,66,0,0,10,6418.733812,0,0,33,0,180,-66,0,0,-10
6.7,0.2,1,1,1,1,0,0,-0.2,0.37,0,0,0,-0.2,0.37,0,0,0,-0.2,0.37,0,0,0,-0.2,0.37,0,6416.823872,0,0,34,68,180,0,10,0,0,6416.823872,0,0,34,-68,180,0,-10,0,0,6416.823872,0,0,34,0,180,68,0,0,10,6416.823872,0,0,34,0,180,-68,0,0,-10
6.9,0.2,1,1,1,1,0,0,-0.2,0.37,0,0,0,-0.2,0.37,0,0,0,-0.2,0.37,0,0,0,-0.2,0.37,0,6415.084703,0,0,35,70,180,0,10,0,0,6415.084703,0,0,35,-70,180,0,-10,0,0,6415.084703,0,0,35,0,180,70,0,0,10,6415.084703,0,0,35,0,180,-70,0,0,-10
7.1,0.2,1,1,1,1,0,0,-0.2,0.37,0,0,0,-0.2,0.37,0,0,0,-0.2,0.37,0,0,0,-0.2,0.37,0,6413.227406,0,0,36,72,180,0,10,0,0,6413.227406,0,0,36,-72,180,0,-10,0,0,6413.227406,0,0,36,0,180,72,0,0,10,6413.227406,0,0,36,0,180,-72,0,0,-10
7.3,0.2,1,1,1,1,0,0,-0.2,0.37,0,0,0,-0.2,0.37,0,0,0,-0.2,0.37,0,0,0,-0.2,0.37,0,6411.32775,0,0,37,74,180,0,10,0,0,6411.32775,0,0,37,-74,180,0,-10,0,0,6411.32775,0,0,37,0,180,74,0,0,10,6411.32775,0,0,37,0,180,-74,0,0,-10
7.5,0.2,1,1,1,1,0,0,-0.2,0.37,0,0,0,-0.2,0.37,0,0,0,-0.2,0.37,0,0,0,-0.2,0.37,0,6409.41981,0,0,38,76,180,0,10,0,0,6409.41981,0,0,38,-76,180,0,-10,0,0,6409.41981,0,0,38,0,180,76,0,0,10,6409.41981,0,0,38,0,180,-76,0,0,-10
7.7,0.2,1,1,1,1,0,0,-0.2,0.37,0,0,0,-0.2,0.37,0,0,0,-0.2,0.37,0,0,0,-0.2,0.37,0,6407.510205,0,0,39,78,180,0,10,0,0,6407.510205,0,0,39,-78,180,0,-10,0,0,6407.510205,0,0,39,0,180,78,0,0,10,6407.510205,0,0,39,0,180,-78,0,0,-10
7.9,0.2,1,1,1,1,0,0,0.2,0.37,0,0,0,0.2,0.37,0,0,0,0.2,0.37,0,0,0,0.2,0.37,0,6405.600265,0,0,40,80,180,0,10,0,0,6405.600265,0,0,40,-80,180,0,-10,0,0,6405.600265,0,0,40,0,180,80,0,0,10,6405.600265,0,0,40,0,180,-80,0,0,-10
8.1,0.2,1,1,1,1,0,0,0.2,0.37,0,0,0,0.2,0.37,0,0,0,0.2,0.37,0,0,0,0.2,0.37,0,6403.861097,0,0,41,82,180,0,10,0,0,6403.861097,0,0,41,-82,180,0,-10,0,0,6403.861097,0,0,41,0,180,82,0,0,10,6403.861097,0,0,41,0,180,-82,0,0,-10
8.3,0.2,1,1,1,1,0,0,0.2,0.37,0,0,0,0.2,0.37,0,0,0,0.2,0.37,0,0,0,0.2,0.37,0,6402.0038,0,0,42,84,180,0,10,0,0,6402.0038,0,0,42,-84,180,0,-10,0,0,6402.0038,0,0,42,0,180,84,0,0,10,6402.0038,0,0,42,0,180,-84,0,0,-10
8.5,0.2,1,1,1,1,0,0,0.2,0.37,0,0,0,0.2,0.37,0,0,0,0.2,0.37,0,0,0,0.2,0.37,0,6400.104144,0,0,43,86,180,0,10,0,0,6400.104144,0,0,43,-86,180,0,-10,0,0,6400.104144,0,0,43,0,180,86,0,0,10,6400.104144,0,0,43,0,180,-86,0,0,-10
8.7,0.2,1,1,1,1,0,0,0.2,0.37,0,0,0,0.2,0.37,0,0,0,0.2,0.37,0,0,0,0.2,0.37,0,6398.196203,0,0,44,88,180,0,10,0,0,6398.196203,0,0,44,-88,180,0,-10,0,0,6398.196203,0,0,44,0,180,88,0,0,10,6398.196203,0,0,44,0,180,-88,0,0,-10
8.9,0.2,1,1,1,1,0,0,0.2,0.37,0,0,0,0.2,0.37,0,0,0,0.2,0.37,0,0,0,0.2,0.37,0,6396.286599,0,0,45,90,180,0,10,0,0,6396.286599,0,0,45,-90,180,0,-10,0,0,6396.286599,0,0,45,0,180,90,0,0,10,6396.286599,0,0,45,0,180,-90,0,0,-10
9.1,0.2,1,1,1,1,0,0,-0.2,0.37,0,0,0,-0.2,0.37,0,0,0,-0.2,0.37,0,0,0,-0.2,0.37,0,6394.376658,0,0,46,92,180,0,10,0,0,6394.376658,0,0,46,-92,180,0,-10,0,0,6394.376658,0,0,46,0,180,92,0,0,10,6394.376658,0,0,46,0,180,-92,0,0,-10
9.3,0.2,1,1,1,1,0,0,-0.2,0.37,0,0,0,-0.2,0.37,0,0,0,-0.2,0.37,0,0,0,-0.2,0.37,0,6392.63749,0,0,47,94,180,0,10,0,0,6392.63749,0,0,47,-94,180,0,-10,0,0,6392.63749,0,0,47,0,180,94,0,0,10,6392.63749,0,0,47,0,180,-94,0,0,-10
9.5,0.2,1,1,1,1,0,0,-0.2,0.37,0,0,0,-0.2,0.37,0,0,0,-0.2,0.37,0,0,0,-0.2,0.37,0,6390.780193,0,0,48,96,180,0,10,0,0,6390.780193,0,0,48,-96,180,0,-10,0,0,6390.780193,0,0,48,0,180,96,0,0,10,6390.780193,0,0,48,0,180,-96,0,0,-10
9.7,0.2,1,1,1,1,0,0,-0.2,0.37,0,0,0,-0.2,0.37,0,0,0,-0.2,0.37,0,0,0,-0.2,0.37,0,6388.880537,0,0,49,98,180,0,10,0,0,6388.880537,0,0,49,-98,180,0,-10,0,0,6388.880537,0,0,49,0,180,98,0,0,10,6388.880537,0,0,49,0,180,-98,0,0,-10
9.9,0.2,1,1,1,1,0,0,-0.2,0.37,0,0,0,-0.2,0.37,0,0,0,-0.2,0.37,0,0,0,-0.2,0.37,0,6386.972596,0,0,50,100,180,0,10,0,0,6386.972596,0,0,50,-100,180,0,-10,0,0,6386.972596,0,0,50,0,180,100,0,0,10,6386.972596,0,0,50,0,180,-100,0,0,-10
10.1,0.2,1,1,1,1,0,0,-0.2,0.37,0,0,0,-0.2,0.37,0,0,0,-0.2,0.37,0,0,0,-0.2,0.37,0,6385.064655,0,0,51,102,180,0,10,0,0,6385.064655,0,0,51,-102,180,0,-10,0,0,6385.064655,0,0,51,0,180,102,0,0,10,6385.064655,0,0,51,0,180,-102,0,0,-10
10.3,0.2,1,1,1,1,0,0,-0.2,0.37,0,0,0,-0.2,0.37,0,0,0,-0.2,0.37,0,0,0,-0.2,0.37,0,6383.156714,0,0,52,104,180,0,10,0,0,6383.156714,0,0,52,-104,180,0,-10,0,0,6383.156714,0,0,52,0,180,104,0,0,10,6383.156714,0,0,52,0,180,-104,0,0,-10
10.5,0.2,1,1,1,1,0,0,-0.2,0.37,0,0,0,-0.2,0.37,0,0,0,-0.2,0.37,0,0,0,-0.2,0.37,0,6381.248773,0,0,53,106,180,0,10,0,0,6381.248773,0,0,53,-106,180,0,-10,0,0,6381.248773,0,0,53,0,180,106,0,0,10,6381.248773,0,0,53,0,180,-106,0,0,-10
10.7,0.2,1,1,1,1,0,0,-0.2,0.37,0,0,0,-0.2,0.37,0,0,0,-0.2,0.37,0,0,0,-0.2,0.37,0,6379.340832,0,0,54,108,180,0,10,0,0,6379.340832,0,0,54,-108,180,0,-10,0,0,6379.340832,0,0,54,0,180,108,0,0,10,6379.340832,0,0,54,0,180,-108,0,0,-10
10.9,0.2,1,1,1,1,0,0,-0.2,0.37,0,0,0,-0.2,0.37,0,0,0,-0.2,0.37,0,0,0,-0.2,0.37,0,6377.432891,0,0,55,110,180,0,10,0,0,6377.432891,0,0,55,-110,180,0,-10,0,0,6377.432891,0,0,55,0,180,110,0,0,10,6377.432891,0,0,55,0,180,-110,0,0,-10
11.1,0.2,1,1,1,1,0,0,-0.2,0.37,0,0,0,-0.2,0.37,0,0,0,-0.2,0.37,0,0,0,-0.2,0.37,0,6375.52495,0,0,56,112,180,0,10,0,0,6375.52495,0,0,56,-112,180,0,-10,0,0,6375.52495,0,0,56,0,180,112,0,0,10,6375.52495,0,0,56,0,180,-112,0,0,-10
11.3,0.2,1,1,1,1,0,0,-0.2,0.37,0,0,0,-0.2,0.37,0,0,0,-0.2,0.37,0,0,0,-0.2,0.37,0,6373.617009,0,0,57,114,180,0,10,0,0,6373.617009,0,0,57,-114,180,0,-10,0,0,6373.617009,0,0,57,0,180,114,0,0,10,6373.617009,0,0,57,0,180,-114,0,0,-10
11.5,0.2,1,1,1,1,0,0,-0.2,0.37,0,0,0,-0.2,0.37,0,0,0,-0.2,0.37,0,0,0,-0.2,0.37,0,6371.709068,0,0,58,116,180,0,10,0,0,6371.709068,0,0,58,-116,180,0,-10,0,0,6371.709068,0,0,58,0,180,116,0,0,10,6371.709068,0,0,58,0,180,-116,0,0,-10
11.7,0.2,1,1,1,1,0,0,-0.2,0.37,0,0,0,-0.2,0.37,0,0,0,-0.2,0.37,0,0,0,-0.2,0.37,0,6369.801127,0,0,59,118,180,0,10,0,0,6369.801127,0,0,59,-118,180,0,-10,0,0,6369.801127,0,0,59,0,180,118,0,0,10,6369.801127,0,0,59,0,180,-118,0,0,-10
11.9,0.2,1,1,1,1,0,0,-0.2,0.37,0,0,0,-0.2,0.37,0,0,0,-0.2,0.37,0,0,0,-0.2,0.37,0,6367.893186,0,0,60,120,180,0,10,0,0,6367.893186,0,0,60,-120,180,0,-10,0,0,6367.893186,0,0,60,0,180,120,0,0,10,6367.893186,0,0,60,0,180,-120,0,0,-10
12.1,0.2,1,1,1,1,0,0,-0.2,0.37,0,0,0,-0.2,0.37,0,0,0,-0.2,0.37,0,0,0,-0.2,0.37,0,6365.985245,0,0,61,122,180,0,10,0,0,6365.985245,0,0,61,-122,180,0,-10,0,0,6365.985245,0,0,61,0,180,122,0,0,10,6365.985245,0,0,61,0,180,-122,0,0,-10
12.3,0.2,1,1,1,1,0,0,-0.2,0.37,0,0,0,-0.2,0.37,0,0,0,-0.2,0.37,0,0,0,-0.2,0.37,0,6364.077304,0,0,62,124,180,0,10,0,0,6364.077304,0,0,62,-124,180,0,-10,0,0,6364.077304,0,0,62,0,180,124,0,0,10,6364.077304,0,0,62,0,180,-124,0,0,-10
12.5,0.2,1,1,1,1,0,0,-0.2,0.37,0,0,0,-0.2,0.37,0,0,0,-0.2,0.37,0,0,0,-0.2,0.37,0,6362.169363,0,0,63,126,180,0,10,0,0,6362.169363,0,0,63,-126,180,0,-10,0,0,6362.169363,0,0,63,0,180,126,0,0,10,6362.169363,0,0,63,0,180,-126,0,0,-10
12.7,0.2,1,1,1,1,0,0,-0.2,0.37,0,0,0,-0.2,0.37,0,0,0,-0.2,0.37,0,0,0,-0.2,0.37,0,6360.261422,0,0,64,128,180,0,10,0,0,6360.261422,0,0,64,-128,180,0,-10,0,0,6360.261422,0,0,64,0,180,128,0,0,10,6360.261422,0,0,64,0,180,-128,0,0,-10
12.9,0.2,1,1,1,1,0,0,-0.2,0.37,0,0,0,-0.2,0.37,0,0,0,-0.2,0.37,0,0,0,-0.2,0.37,0,6358.353481,0,0,65,130,180,0,10,0,0,6358.353481,0,0,65,-130,180,0,-10,0,0,6358.353481,0,0,65,0,180,130,0,0,10,6358.353481,0,0,65,0,180,-130,0,0,-10
13.1,0.2,1,1,1,1,0,0,-0.2,0.37,0,0,0,-0.2,0.37,0,0,0,-0.2,0.37,0,0,0,-0.2,0.37,0,6356.44554,0,0,66,132,180,0,10,0,0,6356.44554,0,0,66,-132,180,0,-10,0,0,6356.44554,0,0,66,0,180,132,0,0,10,6356.44554,0,0,66,0,180,-132,0,0,-10
13.3,0.2,1,1,1,1,0,0,-0.2,0.37,0,0,0,-0.2,0.37,0,0,0,-0.2,0.37,0,0,0,-0.2,0.37,0,6354.537599,0,0,67,134,180,0,10,0,0,6354.537599,0,0,67,-134,180,0,-10,0,0,6354.537599,0,0,67,0,180,134,0,0,10,6354.537599,0,0,67,0,180,-134,0,0,-10
13.5,0.2,1,1,1,1,0,0,-0.2,0.37,0,0,0,-0.2,0.37,0,0,0,-0.2,0.37,0,0,0,-0.2,0.37,0,6352.629658,0,0,68,136,180,0,10,0,0,6352.629658,0,0,68,-136,180,0,-10,0,0,6352.629658,0,0,68,0,180,136,0,0,10,6352.629658,0,0,68,0,180,-136,0,0,-10
13.7,0.2,1,1,1,1,0,0,-0.2,0.37,0,0,0,-0.2,0.37,0,0,0,-0.2,0.37,0,0,0,-0.2,0.37,0,6350.721717,0,0,69,138,180,0,10,0,0,6350.721717,0,0,69,-138,180,0,-10,0,0,6350.721717,0,0,69,0,180,138,0,0,10,6350.721717,0,0,69,0,180,-138,0,0,-10
13.9,0.2,1,1,1,1,0,0,-0.2,0.37,0,0,0,-0.2,0.37,0,0,0,-0.2,0.37,0,0,0,-0.2,0.37,0,6348.813776,0,0,70,140,180,0,10,0,0,6348.813776,0,0,70,-140,180,0,-10,0,0,6348.813776,0,0,70,0,180,140,0,0,10,6348.813776,0,0,70,0,180,-140,0,0,-10
14.1,0.2,1,1,1,1,0,0,-0.2,0.37,0,0,0,-0.2,0.37,0,0,0,-0.2,0.37,0,0,0,-0.2,0.37,0,6346.905835,0,0,71,142,180,0,10,0,0,6346.905835,0,0,71,-142,180,0,-10,0,0,6346.905835,0,0,71,0,180,142,0,0,10,6346.905835,0,0,71,0,180,-142,0,0,-10
14.3,0.2,1,1,1,1,0,0,-0.2,0.37,0,0,0,-0.2,0.37,0,0,0,-0.2,0.37,0,0,0,-0.2,0.37,0,6344.997894,0,0,72,144,180,0,10,0,0,6344.997894,0,0,72,-144,180,0,-10,0,0,6344.997894,0,0,72,0,180,144,0,0,10,6344.997894,0,0,72,0,180,-144,0,0,-10
14.5,0.2,1,1,1,1,0,0,-0.2,0.37,0,0,0,-0.2,0.37,0,0,0,-0.2,0.37,0,0,0,-0.2,0.37,0,6343.089953,0,0,73,146,180,0,10,0,0,6343.089953,0,0,73,-146,180,0,-10,0,0,6343.089953,0,0,73,0,180,146,0,0,10,6343.089953,0,0,73,0,180,-146,0,0,-10
14.7,0.2,1,1,1,1,0,0,-0.2,0.37,0,0,0,-0.2,0.37,0,0,0,-0.2,0.37,0,0,0,-0.2,0.37,0,6341.182012,0,0,74,148,180,0,10,0,0,6341.182012,0,0,74,-148,180,0,-10,0,0,6341.182012,0,0,74,0,180,148,0,0,10,6341.182012,0,0,74,0,180,-148,0,0,-10
14.9,0.2,1,1,1,1,0,0,-0.2,0.37,0,0,0,-0.2,0.37,0,0,0,-0.2,0.37,0,0,0,-0.2,0.37,0,6339.274071,0,0,75,150,180,0,10,0,0,6339.274071,0,0,75,-150,180,0,-10,0,0,6339.274071,0,0,75,0,180,150,0,0,10,6339.274071,0,0,75,0,180,-150,0,0,-10
15.1,0.2,1,1,1,1,0,0,-0.2,0.37,0,0,0,-0.2,0.37,0,0,0,-0.2,0.37,0,0,0,-0.2,0.37,0,6337.36613,0,0,76,152,180,0,10,0,0,6337.36613,0,0,76,-152,180,0,-10,0,0,6337.36613,0,0,76,0,180,152,0,0,10,6337.36613,0,0,76,0,180,-152,0,0,-10
15.3,0.2,1,1,1,1,0,0,-0.2,0.37,0,0,0,-0.2,0.37,0,0,0,-0.2,0.37,0,0,0,-0.2,0.37,0,6335.458189,0,0,77,154,180,0,10,0,0,6335.458189,0,0,77,-154,180,0,-10,0,0,6335.458189,0,0,77,0,180,154,0,0,10,6335.458189,0,0,77,0,180,-154,0,0,-10
15.5,0.2,1,1,1,1,0,0,-0.2,0.37,0,0,0,-0.2,0.37,0,0,0,-0.2,0.37,0,0,0,-0.2,0.37,0,6333.550248,0,0,78,156,180,0,10,0,0,6333.550248,0,0,78,-156,180,0,-10,0,0,6333.550248,0,0,78,0,180,156,0,0,10,6333.550248,0,0,78,0,180,-156,0,0,-10
15.7,0.2,1,1,1,1,0,0,-0.2,0.37,0,0,0,-0.2,0.37,0,0,0,-0.2,0.37,0,0,0,-0.2,0.37,0,6331.642307,0,0,79,158,180,0,10,0,0,6331.642307,0,0,79,-158,180,0,-10,0,0,6331.642307,0,0,79,0,180,158,0,0,10,6331.642307,0,0,79,0,180,-158,0,0,-10
15.9,0.2,1,1,1,1,0,0,-0.2,0.37,0,0,0,-0.2,0.37,0,0,0,-0.2,0.37,0,0,0,-0.2,0.37,0,6329.734366,0,0,80,160,180,0,10,0,0,6329.734366,0,0,80,-160,180,0,-10,0,0,6329.734366,0,0,80,0,180,160,0,0,10,6329.734366,0,0,80,0,180,-160,0,0,-10
16.1,0.2,1,1,1,1,0,0,-0.2,0.37,0,0,0,-0.2,0.37,0,0,0,-0.2,0.37,0,0,0,-0.2,0.37,0,6327.826425,0,0,81,162,180,0,10,0,0,6327.826425,0,0,81,-162,180,0,-10,0,0,6327.826425,0,0,81,0,180,162,0,0,10,6327.826425,0,0,81,0,180,-162,0,0,-10
16.3,0.2,1,1,1,1,0,0,-0.2,0.37,0,0,0,-0.2,0.37,0,0,0,-0.2,0.37,0,0,0,-0.2,0.37,0,6325.918484,0,0,82,164,180,0,10,0,0,6325.918484,0,0,82,-164,180,0,-10,0,0,6325.918484,0,0,82,0,180,164,0,0,10,6325.918484,0,0,82,0,180,-164,0,0,-10
16.5,0.2,1,1,1,1,0,0,-0.2,0.37,0,0,0,-0.2,0.37,0,0,0,-0.2,0.37,0,0,0,-0.2,0.37,0,6324.010543,0,0,83,166,180,0,10,0,0,6324.010543,0,0,83,-166,180,0,-10,0,0,6324.010543,0,0,83,0,180,166,0,0,10,6324.010543,0,0,83,0,180,-166,0,0,-10
16.7,0.2,1,1,1,1,0,0,-0.2,0.37,0,0,0,-0.2,0.37,0,0,0,-0.2,0.37,0,0,0,-0.2,0.37,0,6322.102602,0,0,84,168,180,0,10,0,0,6322.102602,0,0,84,-168,180,0,-10,0,0,6322.102602,0,0,84,0,180,168,0,0,10,6322.102602,0,0,84,0,180,-168,0,0,-10
16.9,0.2,1,1,1,1,0,0,-0.2,0.37,0,0,0,-0.2,0.37,0,0,0,-0.2,0.37,0,0,0,-0.2,0.37,0,6320.194661,0,0,85,170,180,0,10,0,0,6320.194661,0,0,85,-170,180,0,-10,0,0,6320.194661,0,0,85,0,180,170,0,0,10,6320.194661,0,0,85,0,180,-170,0,0,-10
17.1,0.2,1,1,1,1,0,0,-0.2,0.37,0,0,0,-0.2,0.37,0,0,0,-0.2,0.37,0,0,0,-0.2,0.37,0,6318.28672,0,0,86,172,180,0,10,0,0,6318.28672,0,0,86,-172,180,0,-10,0,0,6318.28672,0,0,86,0,180,172,0,0,10,6318.28672,0,0,86,0,180,-172,0,0,-10
17.3,0.2,1,1,1,1,0,0,-0.2,0.37,0,0,0,-0.2,0.37,0,0,0,-0.2,0.37,0,0,0,-0.2,0.37,0,6316.378779,0,0,87,174,180,0,10,0,0,6316.378779,0,0,87,-174,180,0,-10,0,0,6316.378779,0,0,87,0,180,174,0,0,10,6316.378779,0,0,87,0,180,-174,0,0,-10
17.5,0.2,1,1,1,1,0,0,-0.2,0.37,0,0,0,-0.2,0.37,0,0,0,-0.2,0.37,0,0,0,-0.2,0.37,0,6314.470838,0,0,88,176,180,0,10,0,0,6314.470838,0,0,88,-176,180,0,-10,0,0,6314.470838,0,0,88,0,180,176,0,0,10,6314.470838,0,0,88,0,180,-176,0,0,-10
17.7,0.2,1,1,1,1,0,0,-0.2,0.37,0,0,0,-0.2,0.37,0,0,0,-0.2,0.37,0,0,0,-0.2,0.37,0,6312.562897,0,0,89,178,180,0,10,0,0,6312.562897,0,0,89,-178,180,0,-10,0,0,6312.562897,0,0,89,0,180,178,0,0,10,6312.562897,0,0,89,0,180,-178,0,0,-10
17.9,0.2,1,1,1,1,0,0,-0.2,0.37,0,0,0,-0.2,0.37,0,0,0,-0.2,0.37,0,0,0,-0.2,0.37,0,6310.654956,0,0,90,180,180,0,10,0,0,6310.654956,0,0,90,-180,180,0,-10,0,0,6310.654956,0,0,90,0,180,180,0,0,10,6310.654956,0,0,90,0,180,-180,0,0,-10
18.1,0.2,1,1,1,1,0,0,-0.2,0.37,0,0,0,-0.2,0.37,0,0,0,-0.2,0.37,0,0,0,-0.2,0.37,0,6308.747015,0,0,91,182,180,0,10,0,0,6308.747015,0,0,91,-182,180,0,-10,0,0,6308.747015,0,0,91,0,180,182,0,0,10,6308.747015,0,0,91,0,180,-182,0,0,-10
18.3,0.2,1,1,1,1,0,0,-0.2,0.37,0,0,0,-0.2,0.37,0,0,0,-0.2,0.37,0,0,0,-0.2,0.37,0,6306.839074,0,0,92,184,180,0,10,0,0,6306.839074,0,0,92,-184,180,0,-10,0,0,6306.839074,0,0,92,0,180,184,0,0,10,6306.839074,0,0,92,0,180,-184,0,0,-10
18.5,0.2,1,1,1,1,0,0,-0.2,0.37,0,0,0,-0.2,0.37,0,0,0,-0.2,0.37,0,0,0,-0.2,0.37,0,6304.931133,0,0,93,186,180,0,10,0,0,6304.931133,0,0,93,-186,180,0,-10,0,0,6304.931133,0,0,93,0,180,186,0,0,10,6304.931133,0,0,93,0,180,-186,0,0,-10
18.7,0.2,1,1,1,1,0,0,-0.2,0.37,0,0,0,-0.2,0.37,0,0,0,-0.2,0.37,0,0,0,-0.2,0.37,0,6303.023192,0,0,94,188,180,0,10,0,0,6303.023192,0,0,94,-188,180,0,-10,0,0,6303.023192,0,0,94,0,180,188,0,0,10,6303.023192,0,0,94,0,180,-188,0,0,-10
18.9,0.2,1,1,1,1,0,0,-0.2,0.37,0,0,0,-0.2,0.37,0,0,0,-0.2,0.37,0,0,0,-0.2,0.37,0,6301.115251,0,0,95,190,180,0,10,0,0,6301.115251,0,0,95,-190,180,0,-10,0,0,6301.115251,0,0,95,0,180,190,0,0,10,6301.115251,0,0,95,0,180,-190,0,0,-10
19.1,0.2,1,1,1,1,0,0,-0.2,0.37,0,0,0,-0.2,0.37,0,0,0,-0.2,0.37,0,0,0,-0.2,0.37,0,6299.20731,0,0,96,192,180,0,10,0,0,6299.20731,0,0,96,-192,180,0,-10,0,0,6299.20731,0,0,96,0,180,192,0,0,10,6299.20731,0,0,96,0,180,-192,0,0,-10
19.3,0.2,1,1,1,1,0,0,-0.2,0.37,0,0,0,-0.2,0.37,0,0,0,-0.2,0.37,0,0,0,-0.2,0.37,0,6297.299369,0,0,97,194,180,0,10,0,0,6297.299369,0,0,97,-194,180,0,-10,0,0,6297.299369,0,0,97,0,180,194,0,0,10,6297.299369,0,0,97,0,180,-194,0,0,-10
19.5,0.2,1,1,1,1,0,0,-0.2,0.37,0,0,0,-0.2,0.37,0,0,0,-0.2,0.37,0,0,0,-0.2,0.37,0,6295.391428,0,0,98,196,180,0,10,0,0,6295.391428,0,0,98,-196,180,0,-10,0,0,6295.391428,0,0,98,0,180,196,0,0,10,6295.391428,0,0,98,0,180,-196,0,0,-10
19.7,0.2,1,1,1,1,0,0,-0.2,0.37,0,0,0,-0.2,0.37,0,0,0,-0.2,0.37,0,0,0,-0.2,0.37,0,6293.483487,0,0,99,198,180,0,10,0,0,6293.483487,0,0,99,-198,180,0,-10,0,0,6293.483487,0,0,99,0,180,198,0,0,10,6293.483487,0,0,99,0,180,-198,0,0,-10
19.9,0.2,1,1,1,1,0,0,-0.2,0.37,0,0,0,-0.2,0.37,0,0,0,-0.2,0.37,0,0,0,-0.2,0.37,0,6291.575546,0,0,100,200,180,0,10,0,0,6291.575546,0,0,100,-200,180,0,-10,0,0,6291.575546,0,0,100,0,180,200,0,0,10,6291.575546,0,0,100,0,180,-200,0,0,-10
20.1,0.2,1,1,1,1,0,0,-0.2,0.37,0,0,0,-0.2,0.37,0,0,0,-0.2,0.37,0,0,0,-0.2,0.37,0,6289.667605,0,0,101,202,180,0,10,0,0,6289.667605,0,0,101,-202,180,0,-10,0,0,6289.667605,0,0,101,0,180,202,0,0,10,6289.667605,0,0,101,0,180,-202,0,0,-10
20.3,0.2,1,1,1,1,0,0,-0.2,0.37,0,0,0,-0.2,0.37,0,0,0,-0.2,0.37,0,0,0,-0.2,0.37,0,6287.759664,0,0,102,204,180,0,10,0,0,6287.759664,0,0,102,-204,180,0,-10,0,0,6287.759664,0,0,102,0,180,204,0,0,10,6287.759664,0,0,102,0,180,-204,0,0,-10
20.5,0.2,1,1,1,1,0,0,-0.2,0.37,0,0,0,-0.2,0.37,0,0,0,-0.2,0.37,0,0,0,-0.2,0.37,0,6285.851723,0,0,103,206,180,0,10,0,0,6285.851723,0,0,103,-206,180,0,-10,0,0,6285.851723,0,0,103,0,180,206,0,0,10,6285.851723,0,0,103,0,180,-206,0,0,-10
20.7,0.2,1,1,1,1,0,0,-0.2,0.37,0,0,0,-0.2,0.37,0,0,0,-0.2,0.37,0,0,0,-0.2,0.37,0,6283.943782,0,0,104,208,180,0,10,0,0,6283.943782,0,0,104,-208,180,0,-10,0,0,6283.943782,0,0,104,0,180,208,0,0,10,6283.943782,0,0,104,0,180,-208,0,0,-10
20.9,0.2,1,1,1,1,0,0,-0.2,0.37,0,0,0,-0.2,0.37,0,0,0,-0.2,0.37,0,0,0,-0.2,0.37,0,6282.035841,0,0,105,210,180,0,10,0,0,6282.035841,0,0,105,-210,180,0,-10,0,0,6282.035841,0,0,105,0,180,210,0,0,10,6282.035841,0,0,105,0,180,-210,0,0,-10
21.1,0.2,1,1,1,1,0,0,-0.2,0.37,0,0,0,-0.2,0.37,0,0,0,-0.2,0.37,0,0,0,-0.2,0.37,0,6280.1279,0,0,106,212,180,0,10,0,0,6280.1279,0,0,106,-212,180,0,-10,0,0,6280.1279,0,0,106,0,180,212,0,0,10,6280.1279,0,0,106,0,180,-212,0,0,-10
21.3,0.2,1,1,1,1,0,0,-0.2,0.37,0,0,0,-0.2,0.37,0,0,0,-0.2,0.37,0,0,0,-0.2,0.37,0,6278.219959,0,0,107,214,180,0,10,0,0,6278.219959,0,0,107,-214,180,0,-10,0,0,6278.219959,0,0,107,0,180,214,0,0,10,6278.219959,0,0,107,0,180,-214,0,0,-10
21.5,0.2,1,1,1,1,0,0,-0.2,0.37,0,0,0,-0.2,0.37,0,0,0,-0.2,0.37,0,0,0,-0.2,0.37,0,6276.312018,0,0,108,216,180,0,10,0,0,6276.312018,0,0,108,-216,180,0,-10,0,0,6276.312018,0,0,108,0,180,216,0,0,10,6276.312018,0,0,108,0,180,-216,0,0,-10
21.7,0.2,1,1,1,1,0,0,-0.2,0.37,0,0,0,-0.2,0.37,0,0,0,-0.2,0.37,0,0,0,-0.2,0.37,0,6274.404077,0,0,109,218,180,0,10,0,0,6274.404077,0,0,109,-218,180,0,-10,0,0,6274.404077,0,0,109,0,180,218,0,0,10,6274.404077,0,0,109,0,180,-218,0,0,-10
21.9,0.2,1,1,1,1,0,0,-0.2,0.37,0,0,0,-0.2,0.37,0,0,0,-0.2,0.37,0,0,0,-0.2,0.37,0,6272.496136,0,0,110,220,180,0,10,0,0,6272.496136,0,0,110,-220,180,0,-10,0,0,6272.496136,0,0,110,0,180,220,0,0,10,6272.496136,0,0,110,0,180,-220,0,0,-10
22.1,0.2,1,1,1,1,0,0,-0.2,0.37,0,0,0,-0.2,0.37,0,0,0,-0.2,0.37,0,0,0,-0.2,0.37,0,6270.588195,0,0,111,222,180,0,10,0,0,6270.588195,0,0,111,-222,180,0,-10,0,0,6270.588195,0,0,111,0,180,222,0,0,10,6270.588195,0,0,111,0,180,-222,0,0,-10
22.3,0.2,1,1,1,1,0,0,-0.2,0.37,0,0,0,-0.2,0.37,0,0,0,-0.2,0.37,0,0,0,-0.2,0.37,0,6268.680254,0,0,112,224,180,0,10,0,0,6268.680254,0,0,112,-224,180,0,-10,0,0,6268.680254,0,0,112,0,180,224,0,0,10,6268.680254,0,0,112,0,180,-224,0,0,-10
22.5,0.2,1,1,1,1,0,0,-0.2,0.37,0,0,0,-0.2,0.37,0,0,0,-0.2,0.37,0,0,0,-0.2,0.37,0,6266.772313,0,0,113,226,180,0,10,0,0,6266.772313,0,0,113,-226,180,0,-10,0,0,6266.772313,0,0,113,0,180,226,0,0,10,6266.772313,0,0,113,0,180,-226,0,0,-10
22.7,0.2,1,1,1,1,0,0,-0.2,0.37,0,0,0,-0.2,0.37,0,0,0,-0.2,0.37,0,0,0,-0.2,0.37,0,6264.864372,0,0,114,228,180,0,10,0,0,6264.864372,0,0,114,-228,180,0,-10,0,0,6264.864372,0,0,114,0,180,228,0,0,10,6264.864372,0,0,114,0,180,-228,0,0,-10
22.9,0.2,1,1,1,1,0,0,-0.2,0.37,0,0,0,-0.2,0.37,0,0,0,-0.2,0.37,0,0,0,-0.2,0.37,0,6262.956431,0,0,115,230,180,0,10,0,0,6262.956431,0,0,115,-230,180,0,-10,0,0,6262.956431,0,0,115,0,180,230,0,0,10,6262.956431,0,0,115,0,180,-230,0,0,-10
23.1,0.2,1,1,1,1,0,0,-0.2,0.37,0,0,0,-0.2,0.37,0,0,0,-0.2,0.37,0,0,0,-0.2,0.37,0,6261.04849,0,0,116,232,180,0,10,0,0,6261.04849,0,0,116,-232,180,0,-10,0,0,6261.04849,0,0,116,0,180,232,0,0,10,6261.04849,0,0,116,0,180,-232,0,0,-10
23.3,0.2,1,1,1,1,0,0,-0.2,0.37,0,0,0,-0.2,0.37,0,0,0,-0.2,0.37,0,0,0,-0.2,0.37,0,6259.140549,0,0,117,234,180,0,10,0,0,6259.140549,0,0,117,-234,180,0,-10,0,0,6259.140549,0,0,117,0,180,234,0,0,10,6259.140549,0,0,117,0,180,-234,0,0,-10
23.5,0.2,1,1,1,1,0,0,-0.2,0.37,0,0,0,-0.2,0.37,0,0,0,-0.2,0.37,0,0,0,-0.2,0.37,0,6257.232608,0,0,118,236,180,0,10,0,0,6257.232608,0,0,118,-236,180,0,-10,0,0,6257.232608,0,0,118,0,180,236,0,0,10,6257.232608,0,0,118,0,180,-236,0,0,-10
23.7,0.2,1,1,1,1,0,0,-0.2,0.37,0,0,0,-0.2,0.37,0,0,0,-0.2,0.37,0,0,0,-0.2,0.37,0,6255.324667,0,0,119,238,180,0,10,0,0,6255.324667,0,0,119,-238,180,0,-10,0,0,6255.324667,0,0,119,0,180,238,0,0,10,6255.324667,0,0,119,0,180,-238,0,0,-10
23.9,0.2,1,1,1,1,0,0,-0.2,0.37,0,0,0,-0.2,0.37,0,0,0,-0.2,0.37,0,0,0,-0.2,0.37,0,6253.416726,0,0,120,240,180,0,10,0,0,6253.416726,0,0,120,-240,180,0,-10,0,0,6253.416726,0,0,120,0,180,240,0,0,10,6253.416726,0,0,120,0,180,-240,0,0,-10
24.1,0.2,1,1,1,1,0,0,-0.2,0.37,0,0,0,-0.2,0.37,0,0,0,-0.2,0.37,0,0,0,-0.2,0.37,0,6251.508785,0,0,121,242,180,0,10,0,0,6251.508785,0,0,121,-242,180,0,-10,0,0,6251.508785,0,0,121,0,180,242,0,0,10,6251.508785,0,0,121,0,180,-242,0,0,-10
24.3,0.2,1,1,1,1,0,0,-0.2,0.37,0,0,0,-0.2,0.37,0,0,0,-0.2,0.37,0,0,0,-0.2,0.37,0,6249.600844,0,0,122,244,180,0,10,0,0,6249.600844,0,0,122,-244,180,0,-10,0,0,6249.600844,0,0,122,0,180,244,0,0,10,6249.600844,0,0,122,0,180,-244,0,0,-10
24.5,0.2,1,1,1,1,0,0,-0.2,0.37,0,0,0,-0.2,0.37,0,0,0,-0.2,0.37,0,0,0,-0.2,0.37,0,6247.692903,0,0,123,246,180,0,10,0,0,6247.692903,0,0,123,-246,180,0,-10,0,0,6247.692903,0,0,123,0,180,246,0,0,10,6247.692903,0,0,123,0,180,-246,0,0,-10
24.7,0.2,1,1,1,1,0,0,-0.2,0.37,0,0,0,-0.2,0.37,0,0,0,-0.2,0.37,0,0,0,-0.2,0.37,0,6245.784962,0,0,124,248,180,0,10,0,0,6245.784962,0,0,124,-248,180,0,-10,0,0,6245.784962,0,0,124,0,180,248,0,0,10,6245.784962,0,0,124,0,180,-248,0,0,-10
24.9,0.2,1,1,1,1,0,0,-0.2,0.37,0,0,0,-0.2,0.37,0,0,0,-0.2,0.37,0,0,0,-0.2,0.37,0,6243.877021,0,0,125,250,180,0,10,0,0,6243.877021,0,0,125,-250,180,0,-10,0,0,6243.877021,0,0,125,0,180,250,0,0,10,6243.877021,0,0,125,0,180,-250,0,0,-10
25.1,0.2,1,1,1,1,0,0,-0.2,0.37,0,0,0,-0.2,0.37,0,0,0,-0.2,0.37,0,0,0,-0.2,0.37,0,6241.96908,0,0,126,252,180,0,10,0,0,6241.96908,0,0,126,-252,180,0,-10,0,0,6241.96908,0,0,126,0,180,252,0,0,10,6241.96908,0,0,126,0,180,-252,0,0,-10
25.3,0.2,1,1,1,1,0,0,-0.2,0.37,0,0,0,-0.2,0.37,0,0,0,-0.2,0.37,0,0,0,-0.2,0.37,0,6240.061139,0,0,127,254,180,0,10,0,0,6240.061139,0,0,127,-254,180,0,-10,0,0,6240.061139,0,0,127,0,180,254,0,0,10,6240.061139,0,0,127,0,180,-254,0,0,-10
25.5,0.2,1,1,1,1,0,0,-0.2,0.37,0,0,0,-0.2,0.37,0,0,0,-0.2,0.37,0,0,0,-0.2,0.37,0,6238.153198,0,0,128,256,180,0,10,0,0,6238.153198,0,0,128,-256,180,0,-10,0,0,6238.153198,0,0,128,0,180,256,0,0,10,6238.153198,0,0,128,0,180,-256,0,0,-10
25.7,0.2,1,1,1,1,0,0,-0.2,0.37,0,0,0,-0.2,0.37,0,0,0,-0.2,0.37,0,0,0,-0.2,0.37,0,6236.245257,0,0,129,258,180,0,10,0,0,6236.245257,0,0,129,-258,180,0,-10,0,0,6236.245257,0,0,129,0,180,258,0,0,10,6236.245257,0,0,129,0,180,-258,0,0,-10
25.9,0.2,1,1,1,1,0,0,-0.2,0.37,0,0,0,-0.2,0.37,0,0,0,-0.2,0.37,0,0,0,-0.2,0.37,0,6234.337316,0,0,130,260,180,0,10,0,0,6234.337316,0,0,130,-260,180,0,-10,0,0,6234.337316,0,0,130,0,180,260,0,0,10,6234.337316,0,0,130,0,180,-260,0,0,-10
26.1,0.2,1,1,1,1,0,0,-0.2,0.37,0,0,0,-0.2,0.37,0,0,0,-0.2,0.37,0,0,0,-0.2,0.37,0,6232.429375,0,0,131,262,180,0,10,0,0,6232.429375,0,0,131,-262,180,0,-10,0,0,6232.429375,0,0,131,0,180,262,0,0,10,6232.429375,0,0,131,0,180,-262,0,0,-10
26.3,0.2,1,1,1,1,0,0,-0.2,0.37,0,0,0,-0.2,0.37,0,0,0,-0.2,0.37,0,0,0,-0.2,0.37,0,6230.521434,0,0,132,264,180,0,10,0,0,6230.521434,0,0,132,-264,180,0,-10,0,0,6230.521434,0,0,132,0,180,264,0,0,10,6230.521434,0,0,132,0,180,-264,0,0,-10
26.5,0.2,1,1,1,1,0,0,-0.2,0.37,0,0,0,-0.2,0.37,0,0,0,-0.2,0.37,0,0,0,-0.2,0.37,0,6228.613493,0,0,133,266,180,0,10,0,0,6228.613493,0,0,133,-266,180,0,-10,0,0,6228.613493,0,0,133,0,180,266,0,0,10,6228.613493,0,0,133,0,180,-266,0,0,-10
26.7,0.2,1,1,1,1,0,0,-0.2,0.37,0,0,0,-0.2,0.37,0,0,0,-0.2,0.37,0,0,0,-0.2,0.37,0,6226.705552,0,0,134,268,180,0,10,0,0,6226.705552,0,0,134,-268,180,0,-10,0,0,6226.705552,0,0,134,0,180,268,0,0,10,6226.705552,0,0,134,0,180,-268,0,0,-10
26.9,0.2,1,1,1,1,0,0,-0.2,0.37,0,0,0,-0.2,0.37,0,0,0,-0.2,0.37,0,0,0,-0.2,0.37,0,6224.797611,0,0,135,270,180,0,10,0,0,6224.797611,0,0,135,-270,180,0,-10,0,0,6224.797611,0,0,135,0,180,270,0,0,10,6224.797611,0,0,135,0,180,-270,0,0,-10
27.1,0.2,1,1,1,1,0,0,-0.2,0.37,0,0,0,-0.2,0.37,0,0,0,-0.2,0.37,0,0,0,-0.2,0.37,0,6222.88967,0,0,136,272,180,0,10,0,0,6222.88967,0,0,136,-272,180,0,-10,0,0,6222.88967,0,0,136,0,180,272,0,0,10,6222.88967,0,0,136,0,180,-272,0,0,-10
27.3,0.2,1,1,1,1,0,0,-0.2,0.37,0,0,0,-0.2,0.37,0,0,0,-0.2,0.37,0,0,0,-0.2,0.37,0,6220.981729,0,0,137,274,180,0,10,0,0,6220.981729,0,0,137,-274,180,0,-10,0,0,6220.981729,0,0,137,0,180,274,0,0,10,6220.981729,0,0,137,0,180,-274,0,0,-10
27.5,0.2,1,1,1,1,0,0,-0.2,0.37,0,0,0,-0.2,0.37,0,0,0,-0.2,0.37,0,0,0,-0.2,0.37,0,6219.073788,0,0,138,276,180,0,10,0,0,6219.073788,0,0,138,-276,180,0,-10,0,0,6219.073788,0,0,138,0,180,276,0,0,10,6219.073788,0,0,138,0,180,-276,0,0,-10
27.7,0.2,1,1,1,1,0,0,-0.2,0.37,0,0,0,-0.2,0.37,0,0,0,-0.2,0.37,0,0,0,-0.2,0.37,0,6217.165847,0,0,139,278,180,0,10,0,0,6217.165847,0,0,139,-278,180,0,-10,0,0,6217.165847,0,0,139,0,180,278,0,0,10,6217.165847,0,0,139,0,180,-278,0,0,-10
27.9,0.2,1,1,1,1,0,0,-0.2,0.37,0,0,0,-0.2,0.37,0,0,0,-0.2,0.37,0,0,0,-0.2,0.37,0,6215.257906,0,0,140,280,180,0,10,0,0,6215.257906,0,0,140,-280,180,0,-10,0,0,6215.257906,0,0,140,0,180,280,0,0,10,6215.257906,0,0,140,0,180,-280,0,0,-10
28.1,0.2,1,1,1,1,0,0,-0.2,0.37,0,0,0,-0.2,0.37,0,0,0,-0.2,0.37,0,0,0,-0.2,0.37,0,6213.349965,0,0,141,282,180,0,10,0,0,6213.349965,0,0,141,-282,180,0,-10,0,0,6213.349965,0,0,141,0,180,282,0,0,10,6213.349965,0,0,141,0,180,-282,0,0,-10
28.3,0.2,1,1,1,1,0,0,-0.2,0.37,0,0,0,-0.2,0.37,0,0,0,-0.2,0.37,0,0,0,-0.2,0.37,0,6211.442024,0,0,142,284,180,0,10,0,0,6211.442024,0,0,142,-284,180,0,-10,0,0,6211.442024,0,0,142,0,180,284,0,0,10,6211.442024,0,0,142,0,180,-284,0,0,-10
28.5,0.2,1,1,1,1,0,0,-0.2,0.37,0,0,0,-0.2,0.37,0,0,0,-0.2,0.37,0,0,0,-0.2,0.37,0,6209.534083,0,0,143,286,180,0,10,0,0,6209.534083,0,0,143,-286,180,0,-10,0,0,6209.534083,0,0,143,0,180,286,0,0,10,6209.534083,0,0,143,0,180,-286,0,0,-10
28.7,0.2,1,1,1,1,0,0,-0.2,0.37,0,0,0,-0.2,0.37,0,0,0,-0.2,0.37,0,0,0,-0.2,0.37,0,6207.626142,0,0,144,288,180,0,10,0,0,6207.626142,0,0,144,-288,180,0,-10,0,0,6207.626142,0,0,144,0,180,288,0,0,10,6207.626142,0,0,144,0,180,-288,0,0,-10
28.9,0.2,1,1,1,1,0,0,-0.2,0.37,0,0,0,-0.2,0.37,0,0,0,-0.2,0.37,0,0,0,-0.2,0.37,0,6205.718201,0,0,145,290,180,0,10,0,0,6205.718201,0,0,145,-290,180,0,-10,0,0,6205.718201,0,0,145,0,180,290,0,0,10,6205.718201,0,0,145,0,180,-290,0,0,-10
29.1,0.2,1,1,1,1,0,0,-0.2,0.37,0,0,0,-0.2,0.37,0,0,0,-0.2,0.37,0,0,0,-0.2,0.37,0,6203.81026,0,0,146,292,180,0,10,0,0,6203.81026,0,0,146,-292,180,0,-10,0,0,6203.81026,0,0,146,0,180,292,0,0,10,6203.81026,0,0,146,0,180,-292,0,0,-10
29.3,0.2,1,1,1,1,0,0,-0.2,0.37,0,0,0,-0.2,0.37,0,0,0,-0.2,0.37,0,0,0,-0.2,0.37,0,6201.902319,0,0,147,294,180,0,10,0,0,6201.902319,0,0,147,-294,180,0,-10,0,0,6201.902319,0,0,147,0,180,294,0,0,10,6201.902319,0,0,147,0,180,-294,0,0,-10
29.5,0.2,1,1,1,1,0,0,-0.2,0.37,0,0,0,-0.2,0.37,0,0,0,-0.2,0.37,0,0,0,-0.2,0.37,0,6199.994378,0,0,148,296,180,0,10,0,0,6199.994378,0,0,148,-296,180,0,-10,0,0,6199.994378,0,0,148,0,180,296,0,0,10,6199.994378,0,0,148,0,180,-296,0,0,-10
29.7,0.2,1,1,1,1,0,0,-0.2,0.37,0,0,0,-0.2,0.37,0,0,0,-0.2,0.37,0,0,0,-0.2,0.37,0,6198.086437,0,0,149,298,180,0,10,0,0,6198.086437,0,0,149,-298,180,0,-10,0,0,6198.086437,0,0,149,0,180,298,0,0,10,6198.086437,0,0,149,0,180,-298,0,0,-10
29.9,0.2,1,1,1,1,0,0,-0.2,0.37,0,0,0,-0.2,0.37,0,0,0,-0.2,0.37,0,0,0,-0.2,0.37,0,6196.178496,0,0,150,300,180,0,10,0,0,6196.178496,0,0,150,-300,180,0,-10,0,0,6196.178496,0,0,150,0,180,300,0,0,10,6196.178496,0,0,150,0,180,-300,0,0,-10
