time,step-size,{inspector}.inspectorInstance.uav1goToNext,{inspector}.inspectorInstance.uav2goToNext,{inspector}.inspectorInstance.uav3goToNext,{inspector}.inspectorInstance.uav4goToNext,{uavCont}.controller1.onStation,{uavCont}.controller1.pitchOut,{uavCont}.controller1.rollOut,{uavCont}.controller1.throttleOut,{uavCont}.controller1.yawOut,{uavCont}.controller2.onStation,{uavCont}.controller2.pitchOut,{uavCont}.controller2.rollOut,{uavCont}.controller2.throttleOut,{uavCont}.controller2.yawOut,{uavCont}.controller3.onStation,{uavCont}.controller3.pitchOut,{uavCont}.controller3.rollOut,{uavCont}.controller3.throttleOut,{uavCont}.controller3.yawOut,{uavCont}.controller4.onStation,{uavCont}.controller4.pitchOut,{uavCont}.controller4.rollOut,{uavCont}.controller4.throttleOut,{uavCont}.controller4.yawOut,{uav}.uav1.batteryCharge,{uav}.uav1.currentPitch,{uav}.uav1.currentRoll,{uav}.uav1.currentYaw,{uav}.uav1.posX,{uav}.uav1.posY,{uav}.uav1.posZ,{uav}.uav1.velX,{uav}.uav1.velY,{uav}.uav1.velZ,{uav}.uav2.batteryCharge,{uav}.uav2.currentPitch,{uav}.uav2.currentRoll,{uav}.uav2.currentYaw,{uav}.uav2.posX,{uav}.uav2.posY,{uav}.uav2.posZ,{uav}.uav2.velX,{uav}.uav2.velY,{uav}.uav2.velZ,{uav}.uav3.batteryCharge,{uav}.uav3.currentPitch,{uav}.uav3.currentRoll,{uav}.uav3.currentYaw,{uav}.uav3.posX,{uav}.uav3.posY,{uav}.uav3.posZ,{uav}.uav3.velX,{uav}.uav3.velY,{uav}.uav3.velZ,{uav}.uav4.batteryCharge,{uav}.uav4.currentPitch,{uav}.uav4.currentRoll,{uav}.uav4.currentYaw,{uav}.uav4.posX,{uav}.uav4.posY,{uav}.uav4.posZ,{uav}.uav4.velX,{uav}.uav4.velY,{uav}.uav4.velZ
0,0,0,0,0,0,0,0,0,0,0,0,0,0,0,0,0,0,0,0,0,0,0,0,0,0,6480,0,0,0,5,50,0,0,0,0,6480,0,0,0,-5,50,0,0,0,0,6480,0,0,0,0,50,5,0,0,0,6480,0,0,0,0,50,-5,0,0,0
0.1,0.1,1,1,1,1,0,0,0,0,0,0,0,0,0,0,0,0,0,0,0,0,0,0,0,0,6485,0,0,0,5.5,50,0,5,0,0,6485,0,0,0,-5.5,50,0,-5,0,0,6485,0,0,0,0,50,5.5,0,0,5,6485,0,0,0,0,50,-5.5,0,0,-5
0.3,0.2,1,1,1,1,0,0,-0.2,0.51,0,0,0,-0.2,0.51,0,0,0,-0.2,0.51,0,0,0,-0.2,0.51,0,6485,0,0,0,6.5,50,0,5,0,0,6485,0,0,0,-6.5,50,0,-5,0,0,6485,0,0,0,0,50,6.5,0,0,5,6485,0,0,0,0,50,-6.5,0,0,-5
0.5,0.2,1,1,1,1,0,0,-0.2,0.51,0,0,0,-0.2,0.51,0,0,0,-0.2,0.51,0,0,0,-0.2,0.51,0,6482.556802,0,0,0,7.5,50,0,5,0,0,6482.556802,0,0,0,-7.5,50,0,-5,0,0,6482.556802,0,0,0,0,50,7.5,0,0,5,6482.556802,0,0,0,0,50,-7.5,0,0,-5
0.7,0.2,1,1,1,1,0,0,0.2,0.51,0,0,0,0.2,0.51,0,0,0,0.2,0.51,0,0,0,0.2,0.51,0,6479.959778,0,0,0,8.5,50,0,5,0,0,6479.959778,0,0,0,-8.5,50,0,-5,0,0,6479.959778,0,0,0,0,50,8.5,0,0,5,6479.959778,0,0,0,0,50,-8.5,0,0,-5
0.9,0.2,1,1,1,1,0,0,0.2,0.51,0,0,0,0.2,0.51,0,0,0,0.2,0.51,0,0,0,0.2,0.51,0,6477.564264,0,0,0,9.5,50,0,5,0,0,6477.564264,0,0,0,-9.5,50,0,-5,0,0,6477.564264,0,0,0,0,50,9.5,0,0,5,6477.564264,0,0,0,0,50,-9.5,0,0,-5
1.1,0.2,1,1,1,1,0,0,0.2,0.51,0,0,0,0.2,0.51,0,0,0,0.2,0.51,0,0,0,0.2,0.51,0,6480.002674,0,0,0,10.5,50,0,5,0,0,6480.002674,0,0,0,-10.5,50,0,-5,0,0,6480.002674,0,0,0,0,50,10.5,0,0,5,6480.002674,0,0,0,0,50,-10.5,0,0,-5
1.3,0.2,1,1,1,1,0,0,0.2,0.51,0,0,0,0.2,0.51,0,0,0,0.2,0.51,0,0,0,0.2,0.51,0,6477.383936,0,0,0,11.5,50,0,5,0,0,6477.383936,0,0,0,-11.5,50,0,-5,0,0,6477.383936,0,0,0,0,50,11.5,0,0,5,6477.383936,0,0,0,0,50,-11.5,0,0,-5
1.5,0.2,1,1,1,1,0,0,0.2,0.51,0,0,0,0.2,0.51,0,0,0,0.2,0.51,0,0,0,0.2,0.51,0,6474.754014,0,0,0,12.5,50,0,5,0,0,6474.754014,0,0,0,-12.5,50,0,-5,0,0,6474.754014,0,0,0,0,50,12.5,0,0,5,6474.754014,0,0,0,0,50,-12.5,0,0,-5
1.7,0.2,1,1,1,1,0,0,-0.2,0.51,0,0,0,-0.2,0.51,0,0,0,-0.2,0.51,0,0,0,-0.2,0.51,0,6472.121844,0,0,0,13.5,50,0,5,0,0,6472.121844,0,0,0,-13.5,50,0,-5,0,0,6472.121844,0,0,0,0,50,13.5,0,0,5,6472.121844,0,0,0,0,50,-13.5,0,0,-5
1.9,0.2,1,1,1,1,0,0,-0.2,0.51,0,0,0,-0.2,0.51,0,0,0,-0.2,0.51,0,0,0,-0.2,0.51,0,6469.724641,0,0,0,14.5,50,0,5,0,0,6469.724641,0,0,0,-14.5,50,0,-5,0,0,6469.724641,0,0,0,0,50,14.5,0,0,5,6469.724641,0,0,0,0,50,-14.5,0,0,-5
2.1,0.2,1,1,1,1,0,0,-0.2,0.51,0,0,0,-0.2,0.51,0,0,0,-0.2,0.51,0,0,0,-0.2,0.51,0,6467.164563,0,0,0,15.5,50,0,5,0,0,6467.164563,0,0,0,-15.5,50,0,-5,0,0,6467.164563,0,0,0,0,50,15.5,0,0,5,6467.164563,0,0,0,0,50,-15.5,0,0,-5
2.3,0.2,1,1,1,1,0,0,-0.2,0.51,0,0,0,-0.2,0.51,0,0,0,-0.2,0.51,0,0,0,-0.2,0.51,0,6464.546114,0,0,0,16.5,50,0,5,0,0,6464.546114,0,0,0,-16.5,50,0,-5,0,0,6464.546114,0,0,0,0,50,16.5,0,0,5,6464.546114,0,0,0,0,50,-16.5,0,0,-5
2.5,0.2,1,1,1,1,0,0,-0.2,0.51,0,0,0,-0.2,0.51,0,0,0,-0.2,0.51,0,0,0,-0.2,0.51,0,6461.91625,0,0,0,17.5,50,0,5,0,0,6461.91625,0,0,0,-17.5,50,0,-5,0,0,6461.91625,0,0,0,0,50,17.5,0,0,5,6461.91625,0,0,0,0,50,-17.5,0,0,-5
2.7,0.2,1,1,1,1,0,0,-0.2,0.51,0,0,0,-0.2,0.51,0,0,0,-0.2,0.51,0,0,0,-0.2,0.51,0,6459.284092,0,0,0,18.5,50,0,5,0,0,6459.284092,0,0,0,-18.5,50,0,-5,0,0,6459.284092,0,0,0,0,50,18.5,0,0,5,6459.284092,0,0,0,0,50,-18.5,0,0,-5
2.9,0.2,1,1,1,1,0,0,0.2,0.51,0,0,0,0.2,0.51,0,0,0,0.2,0.51,0,0,0,0.2,0.51,0,6456.651471,0,0,0,19.5,50,0,5,0,0,6456.651471,0,0,0,-19.5,50,0,-5,0,0,6456.651471,0,0,0,0,50,19.5,0,0,5,6456.651471,0,0,0,0,50,-19.5,0,0,-5
3.1,0.2,1,1,1,1,0,0,0.2,0.51,0,0,0,0.2,0.51,0,0,0,0.2,0.51,0,0,0,0.2,0.51,0,6454.254239,0,0,0,20.5,50,0,5,0,0,6454.254239,0,0,0,-20.5,50,0,-5,0,0,6454.254239,0,0,0,0,50,20.5,0,0,5,6454.254239,0,0,0,0,50,-20.5,0,0,-5
3.3,0.2,1,1,1,1,0,0,0.2,0.51,0,0,0,0.2,0.51,0,0,0,0.2,0.51,0,0,0,0.2,0.51,0,6451.694181,0,0,0,21.5,50,0,5,0,0,6451.694181,0,0,0,-21.5,50,0,-5,0,0,6451.694181,0,0,0,0,50,21.5,0,0,5,6451.694181,0,0,0,0,50,-21.5,0,0,-5
3.5,0.2,1,1,1,1,0,0,0.2,0.51,0,0,0,0.2,0.51,0,0,0,0.2,0.51,0,0,0,0.2,0.51,0,6449.075737,0,0,0,22.5,50,0,5,0,0,6449.075737,0,0,0,-22.5,50,0,-5,0,0,6449.075737,0,0,0,0,50,22.5,0,0,5,6449.075737,0,0,0,0,50,-22.5,0,0,-5
3.7,0.2,1,1,1,1,0,0,0.2,0.51,0,0,0,0.2,0.51,0,0,0,0.2,0.51,0,0,0,0.2,0.51,0,6446.445873,0,0,0,23.5,50,0,5,0,0,6446.445873,0,0,0,-23.5,50,0,-5,0,0,6446.445873,0,0,0,0,50,23.5,0,0,5,6446.445873,0,0,0,0,50,-23.5,0,0,-5
3.9,0.2,1,1,1,1,0,0,0.2,0.51,0,0,0,0.2,0.51,0,0,0,0.2,0.51,0,0,0,0.2,0.51,0,6443.813715,0,0,0,24.5,50,0,5,0,0,6443.813715,0,0,0,-24.5,50,0,-5,0,0,6443.813715,0,0,0,0,50,24.5,0,0,5,6443.813715,0,0,0,0,50,-24.5,0,0,-5
4.1,0.2,1,1,1,1,0,0,-0.2,0.37,0,0,0,-0.2,0.37,0,0,0,-0.2,0.37,0,0,0,-0.2,0.37,0,6441.181094,0,0,0,25.5,50,0,5,0,0,6441.181094,0,0,0,-25.5,50,0,-5,0,0,6441.181094,0,0,0,0,50,25.5,0,0,5,6441.181094,0,0,0,0,50,-25.5,0,0,-5
4.3,0.2,1,1,1,1,0,0,-0.2,0.37,0,0,0,-0.2,0.37,0,0,0,-0.2,0.37,0,0,0,-0.2,0.37,0,6439.441926,0,0,0,26.5,50,0,5,0,0,6439.441926,0,0,0,-26.5,50,0,-5,0,0,6439.441926,0,0,0,0,50,26.5,0,0,5,6439.441926,0,0,0,0,50,-26.5,0,0,-5
4.5,0.2,1,1,1,1,0,0,-0.2,0.37,0,0,0,-0.2,0.37,0,0,0,-0.2,0.37,0,0,0,-0.2,0.37,0,6437.584629,0,0,0,27.5,50,0,5,0,0,6437.584629,0,0,0,-27.5,50,0,-5,0,0,6437.584629,0,0,0,0,50,27.5,0,0,5,6437.584629,0,0,0,0,50,-27.5,0,0,-5
4.7,0.2,1,1,1,1,0,0,-0.2,0.37,0,0,0,-0.2,0.37,0,0,0,-0.2,0.37,0,0,0,-0.2,0.37,0,6435.684973,0,0,0,28.5,50,0,5,0,0,6435.684973,0,0,0,-28.5,50,0,-5,0,0,6435.684973,0,0,0,0,50,28.5,0,0,5,6435.684973,0,0,0,0,50,-28.5,0,0,-5
4.9,0.2,1,1,1,1,0,0,-0.2,0.37,0,0,0,-0.2,0.37,0,0,0,-0.2,0.37,0,0,0,-0.2,0.37,0,6433.777033,0,0,0,29.5,50,0,5,0,0,6433.777033,0,0,0,-29.5,50,0,-5,0,0,6433.777033,0,0,0,0,50,29.5,0,0,5,6433.777033,0,0,0,0,50,-29.5,0,0,-5
5.1,0.2,1,1,1,1,0,0,-0.2,0.37,0,0,0,-0.2,0.37,0,0,0,-0.2,0.37,0,0,0,-0.2,0.37,0,6431.867428,0,0,0,30.5,50,0,5,0,0,6431.867428,0,0,0,-30.5,50,0,-5,0,0,6431.867428,0,0,0,0,50,30.5,0,0,5,6431.867428,0,0,0,0,50,-30.5,0,0,-5
5.3,0.2,1,1,1,1,0,0,-0.2,0.37,0,0,0,-0.2,0.37,0,0,0,-0.2,0.37,0,0,0,-0.2,0.37,0,6429.957487,0,0,0,31.5,50,0,5,0,0,6429.957487,0,0,0,-31.5,50,0,-5,0,0,6429.957487,0,0,0,0,50,31.5,0,0,5,6429.957487,0,0,0,0,50,-31.5,0,0,-5
5.5,0.2,1,1,1,1,0,0,0.2,0.37,0,0,0,0.2,0.37,0,0,0,0.2,0.37,0,0,0,0.2,0.37,0,6428.047479,0,0,0,32.5,50,0,5,0,0,6428.047479,0,0,0,-32.5,50,0,-5,0,0,6428.047479,0,0,0,0,50,32.5,0,0,5,6428.047479,0,0,0,0,50,-32.5,0,0,-5
5.7,0.2,1,1,1,1,0,0,0.2,0.37,0,0,0,0.2,0.37,0,0,0,0.2,0.37,0,0,0,0.2,0.37,0,6426.308306,0,0,0,33.5,50,0,5,0,0,6426.308306,0,0,0,-33.5,50,0,-5,0,0,6426.308306,0,0,0,0,50,33.5,0,0,5,6426.308306,0,0,0,0,50,-33.5,0,0,-5
5.9,0.2,1,1,1,1,0,0,0.2,0.37,0,0,0,0.2,0.37,0,0,0,0.2,0.37,0,0,0,0.2,0.37,0,6424.451012,0,0,0,34.5,50,0,5,0,0,6424.451012,0,0,0,-34.5,50,0,-5,0,0,6424.451012,0,0,0,0,50,34.5,0,0,5,6424.451012,0,0,0,0,50,-34.5,0,0,-5
6.1,0.2,1,1,1,1,0,0,0.2,0.37,0,0,0,0.2,0.37,0,0,0,0.2,0.37,0,0,0,0.2,0.37,0,6422.551357,0,0,0,35.5,50,0,5,0,0,6422.551357,0,0,0,-35.5,50,0,-5,0,0,6422.551357,0,0,0,0,50,35.5,0,0,5,6422.551357,0,0,0,0,50,-35.5,0,0,-5
6.3,0.2,1,1,1,1,0,0,0.2,0.37,0,0,0,0.2,0.37,0,0,0,0.2,0.37,0,0,0,0.2,0.37,0,6420.643417,0,0,0,36.5,50,0,5,0,0,6420.643417,0,0,0,-36.5,50,0,-5,0,0,6420.643417,0,0,0,0,50,36.5,0,0,5,6420.643417,0,0,0,0,50,-36.5,0,0,-5
6.5,0.2,1,1,1,1,0,0,0.2,0.37,0,0,0,0.2,0.37,0,0,0,0.2,0.37,0,0,0,0.2,0.37,0,6418.733812,0,0,0,37.5,50,0,5,0,0,6418.733812,0,0,0,-37.5,50,0,-5,0,0,6418.733812,0,0,0,0,50,37.5,0,0,5,6418.733812,0,0,0,0,50,-37.5,0,0,-5
6.7,0.2,1,1,1,1,0,0,-0.2,0.37,0,0,0,-0.2,0.37,0,0,0,-0.2,0.37,0,0,0,-0.2,0.37,0,6416.823872,0,0,0,38.5,50,0,5,0,0,6416.823872,0,0,0,-38.5,50,0,-5,0,0,6416.823872,0,0,0,0,50,38.5,0,0,5,6416.823872,0,0,0,0,50,-38.5,0,0,-5
6.9,0.2,1,1,1,1,0,0,-0.2,0.37,0,0,0,-0.2,0.37,0,0,0,-0.2,0.37,0,0,0,-0.2,0.37,0,6415.084703,0,0,0,39.5,50,0,5,0,0,6415.084703,0,0,0,-39.5,50,0,-5,0,0,6415.084703,0,0,0,0,50,39.5,0,0,5,6415.084703,0,0,0,0,50,-39.5,0,0,-5
7.1,0.2,1,1,1,1,0,0,-0.2,0.37,0,0,0,-0.2,0.37,0,0,0,-0.2,0.37,0,0,0,-0.2,0.37,0,6413.227406,0,0,0,40.5,50,0,5,0,0,6413.227406,0,0,0,-40.5,50,0,-5,0,0,6413.227406,0,0,0,0,50,40.5,0,0,5,6413.227406,0,0,0,0,50,-40.5,0,0,-5
7.3,0.2,1,1,1,1,0,0,-0.2,0.37,0,0,0,-0.2,0.37,0,0,0,-0.2,0.37,0,0,0,-0.2,0.37,0,6411.32775,0,0,0,41.5,50,0,5,0,0,6411.32775,0,0,0,-41.5,50,0,-5,0,0,6411.32775,0,0,0,0,50,41.5,0,0,5,6411.32775,0,0,0,0,50,-41.5,0,0,-5
7.5,0.2,1,1,1,1,0,0,-0.2,0.37,0,0,0,-0.2,0.37,0,0,0,-0.2,0.37,0,0,0,-0.2,0.37,0,6409.41981,0,0,0,42.5,50,0,5,0,0,6409.41981,0,0,0,-42.5,50,0,-5,0,0,6409.41981,0,0,0,0,50,42.5,0,0,5,6409.41981,0,0,0,0,50,-42.5,0,0,-5
7.7,0.2,1,1,1,1,0,0,-0.2,0.37,0,0,0,-0.2,0.37,0,0,0,-0.2,0.37,0,0,0,-0.2,0.37,0,6407.510205,0,0,0,43.5,50,0,5,0,0,6407.510205,0,0,0,-43.5,50,0,-5,0,0,6407.510205,0,0,0,0,50,43.5,0,0,5,6407.510205,0,0,0,0,50,-43.5,0,0,-5
7.9,0.2,1,1,1,1,0,0,0.2,0.37,0,0,0,0.2,0.37,0,0,0,0.2,0.37,0,0,0,0.2,0.37,0,6405.600265,0,0,0,44.5,50,0,5,0,0,6405.600265,0,0,0,-44.5,50,0,-5,0,0,6405.600265,0,0,0,0,50,44.5,0,0,5,6405.600265,0,0,0,0,50,-44.5,0,0,-5
8.1,0.2,1,1,1,1,0,0,0.2,0.37,0,0,0,0.2,0.37,0,0,0,0.2,0.37,0,0,0,0.2,0.37,0,6403.861097,0,0,0,45.5,50,0,5,0,0,6403.861097,0,0,0,-45.5,50,0,-5,0,0,6403.861097,0,0,0,0,50,45.5,0,0,5,6403.861097,0,0,0,0,50,-45.5,0,0,-5
8.3,0.2,1,1,1,1,0,0,0.2,0.37,0,0,0,0.2,0.37,0,0,0,0.2,0.37,0,0,0,0.2,0.37,0,6402.0038,0,0,0,46.5,50,0,5,0,0,6402.0038,0,0,0,-46.5,50,0,-5,0,0,6402.0038,0,0,0,0,50,46.5,0,0,5,6402.0038,0,0,0,0,50,-46.5,0,0,-5
8.5,0.2,1,1,1,1,0,0,0.2,0.37,0,0,0,0.2,0.37,0,0,0,0.2,0.37,0,0,0,0.2,0.37,0,6400.104144,0,0,0,47.5,50,0,5,0,0,6400.104144,0,0,0,-47.5,50,0,-5,0,0,6400.104144,0,0,0,0,50,47.5,0,0,5,6400.104144,0,0,0,0,50,-47.5,0,0,-5
8.7,0.2,1,1,1,1,0,0,0.2,0.37,0,0,0,0.2,0.37,0,0,0,0.2,0.37,0,0,0,0.2,0.37,0,6398.196203,0,0,0,48.5,50,0,5,0,0,6398.196203,0,0,0,-48.5,50,0,-5,0,0,6398.196203,0,0,0,0,50,48.5,0,0,5,6398.196203,0,0,0,0,50,-48.5,0,0,-5
8.9,0.2,1,1,1,1,0,0,0.2,0.37,0,0,0,0.2,0.37,0,0,0,0.2,0.37,0,0,0,0.2,0.37,0,6396.286599,0,0,0,49.5,50,0,5,0,0,6396.286599,0,0,0,-49.5,50,0,-5,0,0,6396.286599,0,0,0,0,50,49.5,0,0,5,6396.286599,0,0,0,0,50,-49.5,0,0,-5
9.1,0.2,1,1,1,1,0,0,-0.2,0.37,0,0,0,-0.2,0.37,0,0,0,-0.2,0.37,0,0,0,-0.2,0.37,0,6394.376658,0,0,0,50.5,50,0,5,0,0,6394.376658,0,0,0,-50.5,50,0,-5,0,0,6394.376658,0,0,0,0,50,50.5,0,0,5,6394.376658,0,0,0,0,50,-50.5,0,0,-5
9.3,0.2,1,1,1,1,0,0,-0.2,0.37,0,0,0,-0.2,0.37,0,0,0,-0.2,0.37,0,0,0,-0.2,0.37,0,6392.63749,0,0,0,51.5,50,0,5,0,0,6392.63749,0,0,0,-51.5,50,0,-5,0,0,6392.63749,0,0,0,0,50,51.5,0,0,5,6392.63749,0,0,0,0,50,-51.5,0,0,-5
9.5,0.2,1,1,1,1,0,0,-0.2,0.37,0,0,0,-0.2,0.37,0,0,0,-0.2,0.37,0,0,0,-0.2,0.37,0,6390.780193,0,0,0,52.5,50,0,5,0,0,6390.780193,0,0,0,-52.5,50,0,-5,0,0,6390.780193,0,0,0,0,50,52.5,0,0,5,6390.780193,0,0,0,0,50,-52.5,0,0,-5
9.7,0.2,1,1,1,1,0,0,-0.2,0.37,0,0,0,-0.2,0.37,0,0,0,-0.2,0.37,0,0,0,-0.2,0.37,0,6388.880537,0,0,0,53.5,50,0,5,0,0,6388.880537,0,0,0,-53.5,50,0,-5,0,0,6388.880537,0,0,0,0,50,53.5,0,0,5,6388.880537,0,0,0,0,50,-53.5,0,0,-5
9.9,0.2,1,1,1,1,0,0,-0.2,0.37,0,0,0,-0.2,0.37,0,0,0,-0.2,0.37,0,0,0,-0.2,0.37,0,6386.972596,0,0,0,54.5,50,0,5,0,0,6386.972596,0,0,0,-54.5,50,0,-5,0,0,6386.972596,0,0,0,0,50,54.5,0,0,5,6386.972596,0,0,0,0,50,-54.5,0,0,-5