time,step-size,{inspector}.inspectorInstance.uav1goToNext,{inspector}.inspectorInstance.uav2goToNext,{inspector}.inspectorInstance.uav3goToNext,{inspector}.inspectorInstance.uav4goToNext,{uavCont}.controller1.onStation,{uavCont}.controller1.pitchOut,{uavCont}.controller1.rollOut,{uavCont}.controller1.throttleOut,{uavCont}.controller1.yawOut,{uavCont}.controller2.onStation,{uavCont}.controller2.pitchOut,{uavCont}.controller2.rollOut,{uavCont}.controller2.throttleOut,{uavCont}.controller2.yawOut,{uavCont}.controller3.onStation,{uavCont}.controller3.pitchOut,{uavCont}.controller3.rollOut,{uavCont}.controller3.throttleOut,{uavCont}.controller3.yawOut,{uavCont}.controller4.onStation,{uavCont}.controller4.pitchOut,{uavCont}.controller4.rollOut,{uavCont}.controller4.throttleOut,{uavCont}.controller4.yawOut,{uav}.uav1.batteryCharge,{uav}.uav1.currentPitch,{uav}.uav1.currentRoll,{uav}.uav1.currentYaw,{uav}.uav1.posX,{uav}.uav1.posY,{uav}.uav1.posZ,{uav}.uav1.velX,{uav}.uav1.velY,{uav}.uav1.velZ,{uav}.uav2.batteryCharge,{uav}.uav2.currentPitch,{uav}.uav2.currentRoll,{uav}.uav2.currentYaw,{uav}.uav2.posX,{uav}.uav2.posY,{uav}.uav2.posZ,{uav}.uav2.velX,{uav}.uav2.velY,{uav}.uav2.velZ,{uav}.uav3.batteryCharge,{uav}.uav3.currentPitch,{uav}.uav3.currentRoll,{uav}.uav3.currentYaw,{uav}.uav3.posX,{uav}.uav3.posY,{uav}.uav3.posZ,{uav}.uav3.velX,{uav}.uav3.velY,{uav}.uav3.velZ,{uav}.uav4.batteryCharge,{uav}.uav4.currentPitch,{uav}.uav4.currentRoll,{uav}.uav4.currentYaw,{uav}.uav4.posX,{uav}.uav4.posY,{uav}.uav4.posZ,{uav}.uav4.velX,{uav}.uav4.velY,{uav}.uav4.velZ
0.0,0.0,0,0,0,0,0,0.0,0.0,0.0,0.0,0,0.0,0.0,0.0,0.0,0,0.0,0.0,0.0,0.0,0,0.0,0.0,0.0,0.0,6480.0,0.0,0.0,0.0,5.0,5.0,0.0,0.0,0.0,0.0,6480.0,0.0,0.0,0.0,5.0,5.0,0.0,0.0,0.0,0.0,6480.0,0.0,0.0,0.0,5.0,5.0,0.0,0.0,0.0,0.0,6480.0,0.0,0.0,0.0,5.0,5.0,0.0,0.0,0.0,0.0
0.1,0.1,1,1,1,1,0,0.0,0.0,0.0,0.0,0,0.0,0.0,0.0,0.0,0,0.0,0.0,0.0,0.0,0,0.0,0.0,0.0,0.0,6485.0,0.0,0.0,0.0,5.0,5.0,-0.015736584220275535,0.0,0.0,0.009475949491723297,6485.0,0.0,0.0,0.0,5.0,5.0,-0.015736584220275535,0.0,0.0,0.009475949491723297,6485.0,0.0,0.0,0.0,5.0,5.0,-0.015736584220275535,0.0,0.0,0.009475949491723297,6485.0,0.0,0.0,0.0,5.0,5.0,-0.015736584220275535,0.0,0.0,0.009475949491723297
0.30000000000000004,0.2,1,1,1,1,0,0.0,-0.2,0.51,0.0,0,0.0,-0.2,0.51,0.0,0,0.0,-0.2,0.51,0.0,0,0.0,-0.2,0.51,0.0,6485.0,0.0,0.0,0.0,5.0,5.0,-0.01194428036631159,0.0,0.0,0.007965243393085807,6485.0,0.0,0.0,0.0,5.0,5.0,-0.01194428036631159,0.0,0.0,0.007965243393085807,6485.0,0.0,0.0,0.0,5.0,5.0,-0.01194428036631159,0.0,0.0,0.007965243393085807,6485.0,0.0,0.0,0.0,5.0,5.0,-0.01194428036631159,0.0,0.0,0.007965243393085807
0.5,0.2,1,1,1,1,0,0.0,-0.2,0.51,0.0,0,0.0,-0.2,0.51,0.0,0,0.0,-0.2,0.51,0.0,0,0.0,-0.2,0.51,0.0,6482.556801551455,0.0,-0.15968766601801174,0.0,4.981243587788516,5.0,0.08953636587132631,-0.2528143637413166,0.0,0.7907960474929809,6482.556801551455,0.0,-0.15968766601801174,0.0,4.981243587788516,5.0,0.08953636587132631,-0.2528143637413166,0.0,0.7907960474929809,6482.556801551455,0.0,-0.15968766601801174,0.0,4.981243587788516,5.0,0.08953636587132631,-0.2528143637413166,0.0,0.7907960474929809,6482.556801551455,0.0,-0.15968766601801174,0.0,4.981243587788516,5.0,0.08953636587132631,-0.2528143637413166,0.0,0.7907960474929809
0.7,0.2,1,1,1,1,0,0.0,0.2,0.51,0.0,0,0.0,0.2,0.51,0.0,0,0.0,0.2,0.51,0.0,0,0.0,0.2,0.51,0.0,6479.959777936081,0.0,-0.19184631630947405,0.0,4.886844117109955,5.0,0.2998192801045102,-0.7033337247495004,0.0,1.3078951054829584,6479.959777936081,0.0,-0.19184631630947405,0.0,4.886844117109955,5.0,0.2998192801045102,-0.7033337247495004,0.0,1.3078951054829584,6479.959777936081,0.0,-0.19184631630947405,0.0,4.886844117109955,5.0,0.2998192801045102,-0.7033337247495004,0.0,1.3078951054829584,6479.959777936081,0.0,-0.19184631630947405,0.0,4.886844117109955,5.0,0.2998192801045102,-0.7033337247495004,0.0,1.3078951054829584
0.8999999999999999,0.2,1,1,1,1,0,0.0,0.2,0.51,0.0,0,0.0,0.2,0.51,0.0,0,0.0,0.2,0.51,0.0,0,0.0,0.2,0.51,0.0,6477.564264185864,0.0,0.12102451855434454,0.0,4.735072782321375,5.0,0.614916542022228,-0.6861482841731952,0.0,1.841969751717107,6477.564264185864,0.0,0.12102451855434454,0.0,4.735072782321375,5.0,0.614916542022228,-0.6861482841731952,0.0,1.841969751717107,6477.564264185864,0.0,0.12102451855434454,0.0,4.735072782321375,5.0,0.614916542022228,-0.6861482841731952,0.0,1.841969751717107,6477.564264185864,0.0,0.12102451855434454,0.0,4.735072782321375,5.0,0.614916542022228,-0.6861482841731952,0.0,1.841969751717107
1.0999999999999999,0.2,1,1,1,1,0,0.0,0.2,0.51,0.0,0,0.0,0.2,0.51,0.0,0,0.0,0.2,0.51,0.0,0,0.0,0.2,0.51,0.0,6480.00267440262,0.0,0.18402620162596905,0.0,4.636117245522048,5.0,1.0332951163755684,-0.27877588608495196,0.0,2.33435861230759,6480.00267440262,0.0,0.18402620162596905,0.0,4.636117245522048,5.0,1.0332951163755684,-0.27877588608495196,0.0,2.33435861230759,6480.00267440262,0.0,0.18402620162596905,0.0,4.636117245522048,5.0,1.0332951163755684,-0.27877588608495196,0.0,2.33435861230759,6480.00267440262,0.0,0.18402620162596905,0.0,4.636117245522048,5.0,1.0332951163755684,-0.27877588608495196,0.0,2.33435861230759
1.2999999999999998,0.2,1,1,1,1,0,0.0,0.2,0.51,0.0,0,0.0,0.2,0.51,0.0,0,0.0,0.2,0.51,0.0,0,0.0,0.2,0.51,0.0,6477.383936317982,0.0,0.19676909554936015,0.0,4.628187325097838,5.0,1.5463233686468532,0.20439532541317917,0.0,2.790941678303293,6477.383936317982,0.0,0.19676909554936015,0.0,4.628187325097838,5.0,1.5463233686468532,0.20439532541317917,0.0,2.790941678303293,6477.383936317982,0.0,0.19676909554936015,0.0,4.628187325097838,5.0,1.5463233686468532,0.20439532541317917,0.0,2.790941678303293,6477.383936317982,0.0,0.19676909554936015,0.0,4.628187325097838,5.0,1.5463233686468532,0.20439532541317917,0.0,2.790941678303293
1.4999999999999998,0.2,1,1,1,1,0,0.0,0.2,0.51,0.0,0,0.0,0.2,0.51,0.0,0,0.0,0.2,0.51,0.0,0,0.0,0.2,0.51,0.0,6474.754013630852,0.0,0.19934650836797,0.0,4.718691602930654,5.0,2.14781155486385,0.7009067239534381,0.0,3.2193433622923715,6474.754013630852,0.0,0.19934650836797,0.0,4.718691602930654,5.0,2.14781155486385,0.7009067239534381,0.0,3.2193433622923715,6474.754013630852,0.0,0.19934650836797,0.0,4.718691602930654,5.0,2.14781155486385,0.7009067239534381,0.0,3.2193433622923715,6474.754013630852,0.0,0.19934650836797,0.0,4.718691602930654,5.0,2.14781155486385,0.7009067239534381,0.0,3.2193433622923715
1.6999999999999997,0.2,1,1,1,1,0,0.0,-0.2,0.51,0.0,0,0.0,-0.2,0.51,0.0,0,0.0,-0.2,0.51,0.0,0,0.0,-0.2,0.51,0.0,6472.121844221091,0.0,0.19986782298280326,0.0,4.908277480681296,5.0,2.832218299507097,1.1935801329604914,0.0,3.620014284428603,6472.121844221091,0.0,0.19986782298280326,0.0,4.908277480681296,5.0,2.832218299507097,1.1935801329604914,0.0,3.620014284428603,6472.121844221091,0.0,0.19986782298280326,0.0,4.908277480681296,5.0,2.832218299507097,1.1935801329604914,0.0,3.620014284428603,6472.121844221091,0.0,0.19986782298280326,0.0,4.908277480681296,5.0,2.832218299507097,1.1935801329604914,0.0,3.620014284428603
1.8999999999999997,0.2,1,1,1,1,0,0.0,-0.2,0.51,0.0,0,0.0,-0.2,0.51,0.0,0,0.0,-0.2,0.51,0.0,0,0.0,-0.2,0.51,0.0,6469.724640664709,0.0,-0.11940206652353448,0.0,5.158361393261601,5.0,3.5975853787683163,1.1766014088025214,0.0,4.030588887602907,6469.724640664709,0.0,-0.11940206652353448,0.0,5.158361393261601,5.0,3.5975853787683163,1.1766014088025214,0.0,4.030588887602907,6469.724640664709,0.0,-0.11940206652353448,0.0,5.158361393261601,5.0,3.5975853787683163,1.1766014088025214,0.0,4.030588887602907,6469.724640664709,0.0,-0.11940206652353448,0.0,5.158361393261601,5.0,3.5975853787683163,1.1766014088025214,0.0,4.030588887602907
2.0999999999999996,0.2,1,1,1,1,0,0.0,-0.2,0.51,0.0,0,0.0,-0.2,0.51,0.0,0,0.0,-0.2,0.51,0.0,0,0.0,-0.2,0.51,0.0,6467.164562751813,0.0,-0.18369804001001852,0.0,5.3549012778932585,5.0,4.440321590946022,0.7643644058897503,0.0,4.387596895563198,6467.164562751813,0.0,-0.18369804001001852,0.0,5.3549012778932585,5.0,4.440321590946022,0.7643644058897503,0.0,4.387596895563198,6467.164562751813,0.0,-0.18369804001001852,0.0,5.3549012778932585,5.0,4.440321590946022,0.7643644058897503,0.0,4.387596895563198,6467.164562751813,0.0,-0.18369804001001852,0.0,5.3549012778932585,5.0,4.440321590946022,0.7643644058897503,0.0,4.387596895563198
2.3,0.2,1,1,1,1,0,0.0,-0.2,0.51,0.0,0,0.0,-0.2,0.51,0.0,0,0.0,-0.2,0.51,0.0,0,0.0,-0.2,0.51,0.0,6464.546114379194,0.0,-0.19670272067716785,0.0,5.459688131833791,5.0,5.349782923028165,0.2791823079770459,0.0,4.70116392527039,6464.546114379194,0.0,-0.19670272067716785,0.0,5.459688131833791,5.0,5.349782923028165,0.2791823079770459,0.0,4.70116392527039,6464.546114379194,0.0,-0.19670272067716785,0.0,5.459688131833791,5.0,5.349782923028165,0.2791823079770459,0.0,4.70116392527039,6464.546114379194,0.0,-0.19670272067716785,0.0,5.459688131833791,5.0,5.349782923028165,0.2791823079770459,0.0,4.70116392527039
2.5,0.2,1,1,1,1,0,0.0,-0.2,0.51,0.0,0,0.0,-0.2,0.51,0.0,0,0.0,-0.2,0.51,0.0,0,0.0,-0.2,0.51,0.0,6461.916249619874,0.0,-0.19933308320352539,0.0,5.465780235340032,5.0,6.318706462771886,-0.21913312193485618,0.0,4.983209723204417,6461.916249619874,0.0,-0.19933308320352539,0.0,5.465780235340032,5.0,6.318706462771886,-0.21913312193485618,0.0,4.983209723204417,6461.916249619874,0.0,-0.19933308320352539,0.0,5.465780235340032,5.0,6.318706462771886,-0.21913312193485618,0.0,4.983209723204417,6461.916249619874,0.0,-0.19933308320352539,0.0,5.465780235340032,5.0,6.318706462771886,-0.21913312193485618,0.0,4.983209723204417
2.7,0.2,1,1,1,1,0,0.0,-0.2,0.51,0.0,0,0.0,-0.2,0.51,0.0,0,0.0,-0.2,0.51,0.0,0,0.0,-0.2,0.51,0.0,6459.28409189924,0.0,-0.19986510757207004,0.0,5.371995605025094,5.0,7.341222653135499,-0.7181259163258575,0.0,5.237480002315133,6459.28409189924,0.0,-0.19986510757207004,0.0,5.371995605025094,5.0,7.341222653135499,-0.7181259163258575,0.0,5.237480002315133,6459.28409189924,0.0,-0.19986510757207004,0.0,5.371995605025094,5.0,7.341222653135499,-0.7181259163258575,0.0,5.237480002315133,6459.28409189924,0.0,-0.19986510757207004,0.0,5.371995605025094,5.0,7.341222653135499,-0.7181259163258575,0.0,5.237480002315133
2.9000000000000004,0.2,1,1,1,1,0,0.0,0.2,0.51,0.0,0,0.0,0.2,0.51,0.0,0,0.0,0.2,0.51,0.0,0,0.0,0.2,0.51,0.0,6456.65147106021,0.0,-0.19997271628603594,0.0,5.178969180154644,5.0,8.411981673111015,-1.2105739644805649,0.0,5.465929682048698,6456.65147106021,0.0,-0.19997271628603594,0.0,5.178969180154644,5.0,8.411981673111015,-1.2105739644805649,0.0,5.465929682048698,6456.65147106021,0.0,-0.19997271628603594,0.0,5.178969180154644,5.0,8.411981673111015,-1.2105739644805649,0.0,5.465929682048698,6456.65147106021,0.0,-0.19997271628603594,0.0,5.178969180154644,5.0,8.411981673111015,-1.2105739644805649,0.0,5.465929682048698
3.1000000000000005,0.2,1,1,1,1,0,0.0,0.2,0.51,0.0,0,0.0,0.2,0.51,0.0,0,0.0,0.2,0.51,0.0,0,0.0,0.2,0.51,0.0,6454.25423927594,0.0,0.1193808505151517,0.0,4.9255264708895465,5.0,9.529617007356592,-1.1933053313169621,0.0,5.708065055570976,6454.25423927594,0.0,0.1193808505151517,0.0,4.9255264708895465,5.0,9.529617007356592,-1.1933053313169621,0.0,5.708065055570976,6454.25423927594,0.0,0.1193808505151517,0.0,4.9255264708895465,5.0,9.529617007356592,-1.1933053313169621,0.0,5.708065055570976,6454.25423927594,0.0,0.1193808505151517,0.0,4.9255264708895465,5.0,9.529617007356592,-1.1933053313169621,0.0,5.708065055570976
3.3000000000000007,0.2,1,1,1,1,0,0.0,0.2,0.51,0.0,0,0.0,0.2,0.51,0.0,0,0.0,0.2,0.51,0.0,0,0.0,0.2,0.51,0.0,6451.69418114624,0.0,0.18369374880173495,0.0,4.725637637701603,5.0,10.691470515055107,-0.7811937027406038,0.0,5.902554217796612,6451.69418114624,0.0,0.18369374880173495,0.0,4.725637637701603,5.0,10.691470515055107,-0.7811937027406038,0.0,5.902554217796612,6451.69418114624,0.0,0.18369374880173495,0.0,4.725637637701603,5.0,10.691470515055107,-0.7811937027406038,0.0,5.902554217796612,6451.69418114624,0.0,0.18369374880173495,0.0,4.725637637701603,5.0,10.691470515055107,-0.7811937027406038,0.0,5.902554217796612
3.500000000000001,0.2,1,1,1,1,0,0.0,0.2,0.51,0.0,0,0.0,0.2,0.51,0.0,0,0.0,0.2,0.51,0.0,0,0.0,0.2,0.51,0.0,6449.075736562602,0.0,0.1967018527255625,0.0,4.61745394565567,5.0,11.888369685110513,-0.29635262004186297,0.0,6.062163173190602,6449.075736562602,0.0,0.1967018527255625,0.0,4.61745394565567,5.0,11.888369685110513,-0.29635262004186297,0.0,6.062163173190602,6449.075736562602,0.0,0.1967018527255625,0.0,4.61745394565567,5.0,11.888369685110513,-0.29635262004186297,0.0,6.062163173190602,6449.075736562602,0.0,0.1967018527255625,0.0,4.61745394565567,5.0,11.888369685110513,-0.29635262004186297,0.0,6.062163173190602
3.700000000000001,0.2,1,1,1,1,0,0.0,0.2,0.51,0.0,0,0.0,0.2,0.51,0.0,0,0.0,0.2,0.51,0.0,0,0.0,0.2,0.51,0.0,6446.445872560797,0.0,0.19933290764924336,0.0,4.607879485835492,5.0,13.114918326901803,0.20147255911759004,0.0,6.200202975454927,6446.445872560797,0.0,0.19933290764924336,0.0,4.607879485835492,5.0,13.114918326901803,0.20147255911759004,0.0,6.200202975454927,6446.445872560797,0.0,0.19933290764924336,0.0,4.607879485835492,5.0,13.114918326901803,0.20147255911759004,0.0,6.200202975454927,6446.445872560797,0.0,0.19933290764924336,0.0,4.607879485835492,5.0,13.114918326901803,0.20147255911759004,0.0,6.200202975454927
3.9000000000000012,0.2,1,1,1,1,0,0.0,0.2,0.51,0.0,0,0.0,0.2,0.51,0.0,0,0.0,0.2,0.51,0.0,0,0.0,0.2,0.51,0.0,6443.813714993016,0.0,0.1998650720639775,0.0,4.698091721438783,5.0,14.36731614186451,0.7000927793667819,0.0,6.321121050105387,6443.813714993016,0.0,0.1998650720639775,0.0,4.698091721438783,5.0,14.36731614186451,0.7000927793667819,0.0,6.321121050105387,6443.813714993016,0.0,0.1998650720639775,0.0,4.698091721438783,5.0,14.36731614186451,0.7000927793667819,0.0,6.321121050105387,6443.813714993016,0.0,0.1998650720639775,0.0,4.698091721438783,5.0,14.36731614186451,0.7000927793667819,0.0,6.321121050105387
4.100000000000001,0.2,1,1,1,1,0,0.0,-0.2,0.37,0.0,0,0.0,-0.2,0.37,0.0,0,0.0,-0.2,0.37,0.0,0,0.0,-0.2,0.37,0.0,6441.181094184888,0.0,0.19997270910407136,0.0,4.887489403631084,5.0,15.642376790811339,1.1923501716033482,0.0,6.427137619553718,6441.181094184888,0.0,0.19997270910407136,0.0,4.887489403631084,5.0,15.642376790811339,1.1923501716033482,0.0,6.427137619553718,6441.181094184888,0.0,0.19997270910407136,0.0,4.887489403631084,5.0,15.642376790811339,1.1923501716033482,0.0,6.427137619553718,6441.181094184888,0.0,0.19997270910407136,0.0,4.887489403631084,5.0,15.642376790811339,1.1923501716033482,0.0,6.427137619553718
4.300000000000002,0.2,1,1,1,1,0,0.0,-0.2,0.37,0.0,0,0.0,-0.2,0.37,0.0,0,0.0,-0.2,0.37,0.0,0,0.0,-0.2,0.37,0.0,6439.441926029075,0.0,-0.1193808519677956,0.0,5.1338484341997574,5.0,16.874911043812883,1.1762994748421405,0.0,5.908882973070973,6439.441926029075,0.0,-0.1193808519677956,0.0,5.1338484341997574,5.0,16.874911043812883,1.1762994748421405,0.0,5.908882973070973,6439.441926029075,0.0,-0.1193808519677956,0.0,5.1338484341997574,5.0,16.874911043812883,1.1762994748421405,0.0,5.908882973070973,6439.441926029075,0.0,-0.1193808519677956,0.0,5.1338484341997574,5.0,16.874911043812883,1.1762994748421405,0.0,5.908882973070973
4.500000000000002,0.2,1,1,1,1,0,0.0,-0.2,0.37,0.0,0,0.0,-0.2,0.37,0.0,0,0.0,-0.2,0.37,0.0,0,0.0,-0.2,0.37,0.0,6437.584628953606,0.0,-0.1836937490955507,0.0,5.3406603888168185,5.0,18.008493851502298,0.8741894439654683,0.0,5.432999208553888,6437.584628953606,0.0,-0.1836937490955507,0.0,5.3406603888168185,5.0,18.008493851502298,0.8741894439654683,0.0,5.432999208553888,6437.584628953606,0.0,-0.1836937490955507,0.0,5.3406603888168185,5.0,18.008493851502298,0.8741894439654683,0.0,5.432999208553888,6437.584628953606,0.0,-0.1836937490955507,0.0,5.3406603888168185,5.0,18.008493851502298,0.8741894439654683,0.0,5.432999208553888
4.700000000000002,0.2,1,1,1,1,0,0.0,-0.2,0.37,0.0,0,0.0,-0.2,0.37,0.0,0,0.0,-0.2,0.37,0.0,0,0.0,-0.2,0.37,0.0,6435.684973079012,0.0,-0.19670185278499047,0.0,5.480376845934657,5.0,19.050767772442637,0.5200550076287763,0.0,4.996593616297572,6435.684973079012,0.0,-0.19670185278499047,0.0,5.480376845934657,5.0,19.050767772442637,0.5200550076287763,0.0,4.996593616297572,6435.684973079012,0.0,-0.19670185278499047,0.0,5.480376845934657,5.0,19.050767772442637,0.5200550076287763,0.0,4.996593616297572,6435.684973079012,0.0,-0.19670185278499047,0.0,5.480376845934657,5.0,19.050767772442637,0.5200550076287763,0.0,4.996593616297572
4.900000000000002,0.2,1,1,1,1,0,0.0,-0.2,0.37,0.0,0,0.0,-0.2,0.37,0.0,0,0.0,-0.2,0.37,0.0,0,0.0,-0.2,0.37,0.0,6433.777032528645,0.0,-0.19933290766126338,0.0,5.548220415983303,5.0,20.009744456775795,0.1580413180974804,0.0,4.599362068435777,6433.777032528645,0.0,-0.19933290766126338,0.0,5.548220415983303,5.0,20.009744456775795,0.1580413180974804,0.0,4.599362068435777,6433.777032528645,0.0,-0.19933290766126338,0.0,5.548220415983303,5.0,20.009744456775795,0.1580413180974804,0.0,4.599362068435777,6433.777032528645,0.0,-0.19933290766126338,0.0,5.548220415983303,5.0,20.009744456775795,0.1580413180974804,0.0,4.599362068435777
5.100000000000002,0.2,1,1,1,1,0,0.0,-0.2,0.37,0.0,0,0.0,-0.2,0.37,0.0,0,0.0,-0.2,0.37,0.0,0,0.0,-0.2,0.37,0.0,6431.867428018676,0.0,-0.19986507206640872,0.0,5.543532917725085,5.0,20.8927915211552,-0.2049761234985066,0.0,4.236406342877781,6431.867428018676,0.0,-0.19986507206640872,0.0,5.543532917725085,5.0,20.8927915211552,-0.2049761234985066,0.0,4.236406342877781,6431.867428018676,0.0,-0.19986507206640872,0.0,5.543532917725085,5.0,20.8927915211552,-0.2049761234985066,0.0,4.236406342877781,6431.867428018676,0.0,-0.19986507206640872,0.0,5.543532917725085,5.0,20.8927915211552,-0.2049761234985066,0.0,4.236406342877781
5.3000000000000025,0.2,1,1,1,1,0,0.0,-0.2,0.37,0.0,0,0.0,-0.2,0.37,0.0,0,0.0,-0.2,0.37,0.0,0,0.0,-0.2,0.37,0.0,6429.957487432386,0.0,-0.1999727091045631,0.0,5.466304371724605,5.0,21.706246909117542,-0.5668642474589464,0.0,3.902649107349439,6429.957487432386,0.0,-0.1999727091045631,0.0,5.466304371724605,5.0,21.706246909117542,-0.5668642474589464,0.0,3.902649107349439,6429.957487432386,0.0,-0.1999727091045631,0.0,5.466304371724605,5.0,21.706246909117542,-0.5668642474589464,0.0,3.902649107349439,6429.957487432386,0.0,-0.1999727091045631,0.0,5.466304371724605,5.0,21.706246909117542,-0.5668642474589464,0.0,3.902649107349439
5.500000000000003,0.2,1,1,1,1,0,0.0,0.2,0.37,0.0,0,0.0,0.2,0.37,0.0,0,0.0,0.2,0.37,0.0,0,0.0,0.2,0.37,0.0,6428.047478890047,0.0,-0.1999944800683304,0.0,5.317055804244268,5.0,22.455501210954747,-0.9247251546009292,0.0,3.5937298728203517,6428.047478890047,0.0,-0.1999944800683304,0.0,5.317055804244268,5.0,22.455501210954747,-0.9247251546009292,0.0,3.5937298728203517,6428.047478890047,0.0,-0.1999944800683304,0.0,5.317055804244268,5.0,22.455501210954747,-0.9247251546009292,0.0,3.5937298728203517,6428.047478890047,0.0,-0.1999944800683304,0.0,5.317055804244268,5.0,22.455501210954747,-0.9247251546009292,0.0,3.5937298728203517
5.700000000000003,0.2,1,1,1,1,0,0.0,0.2,0.37,0.0,0,0.0,0.2,0.37,0.0,0,0.0,0.2,0.37,0.0,0,0.0,0.2,0.37,0.0,6426.308306484466,0.0,0.11937644851260779,0.0,5.12367472198585,5.0,23.147806476458367,-0.914519361475749,0.0,3.333947448028352,6426.308306484466,0.0,0.11937644851260779,0.0,5.12367472198585,5.0,23.147806476458367,-0.914519361475749,0.0,3.333947448028352,6426.308306484466,0.0,0.11937644851260779,0.0,5.12367472198585,5.0,23.147806476458367,-0.914519361475749,0.0,3.333947448028352,6426.308306484466,0.0,0.11937644851260779,0.0,5.12367472198585,5.0,23.147806476458367,-0.914519361475749,0.0,3.333947448028352
5.900000000000003,0.2,1,1,1,1,0,0.0,0.2,0.37,0.0,0,0.0,0.2,0.37,0.0,0,0.0,0.2,0.37,0.0,0,0.0,0.2,0.37,0.0,6424.451012387943,0.0,0.18369285844057742,0.0,4.968696609843866,5.0,23.788732205163043,-0.6173693382435016,0.0,3.075106948271679,6424.451012387943,0.0,0.18369285844057742,0.0,4.968696609843866,5.0,23.788732205163043,-0.6173693382435016,0.0,3.075106948271679,6424.451012387943,0.0,0.18369285844057742,0.0,4.968696609843866,5.0,23.788732205163043,-0.6173693382435016,0.0,3.075106948271679,6424.451012387943,0.0,0.18369285844057742,0.0,4.968696609843866,5.0,23.788732205163043,-0.6173693382435016,0.0,3.075106948271679
6.100000000000003,0.2,1,1,1,1,0,0.0,0.2,0.37,0.0,0,0.0,0.2,0.37,0.0,0,0.0,0.2,0.37,0.0,0,0.0,0.2,0.37,0.0,6422.551357083888,0.0,0.19670167263866278,0.0,4.879990337686233,5.0,24.378256226108142,-0.26646855088897436,0.0,2.8218686789378644,6422.551357083888,0.0,0.19670167263866278,0.0,4.879990337686233,5.0,24.378256226108142,-0.26646855088897436,0.0,2.8218686789378644,6422.551357083888,0.0,0.19670167263866278,0.0,4.879990337686233,5.0,24.378256226108142,-0.26646855088897436,0.0,2.8218686789378644,6422.551357083888,0.0,0.19670167263866278,0.0,4.879990337686233,5.0,24.378256226108142,-0.26646855088897436,0.0,2.8218686789378644
6.300000000000003,0.2,1,1,1,1,0,0.0,0.2,0.37,0.0,0,0.0,0.2,0.37,0.0,0,0.0,0.2,0.37,0.0,0,0.0,0.2,0.37,0.0,6420.6434166475865,0.0,0.199332871224371,0.0,4.862692687447497,5.0,24.918253068561242,0.09412443073892857,0.0,2.5800948150847516,6420.6434166475865,0.0,0.199332871224371,0.0,4.862692687447497,5.0,24.918253068561242,0.09412443073892857,0.0,2.5800948150847516,6420.6434166475865,0.0,0.199332871224371,0.0,4.862692687447497,5.0,24.918253068561242,0.09412443073892857,0.0,2.5800948150847516,6420.6434166475865,0.0,0.199332871224371,0.0,4.862692687447497,5.0,24.918253068561242,0.09412443073892857,0.0,2.5800948150847516
6.5000000000000036,0.2,1,1,1,1,0,0.0,0.2,0.37,0.0,0,0.0,0.2,0.37,0.0,0,0.0,0.2,0.37,0.0,0,0.0,0.2,0.37,0.0,6418.733812160637,0.0,0.1998650646965825,0.0,4.917722750635965,5.0,25.411059383012155,0.45598790305180775,0.0,2.3497986232652193,6418.733812160637,0.0,0.1998650646965825,0.0,4.917722750635965,5.0,25.411059383012155,0.45598790305180775,0.0,2.3497986232652193,6418.733812160637,0.0,0.1998650646965825,0.0,4.917722750635965,5.0,25.411059383012155,0.45598790305180775,0.0,2.3497986232652193,6418.733812160637,0.0,0.1998650646965825,0.0,4.917722750635965,5.0,25.411059383012155,0.45598790305180775,0.0,2.3497986232652193
6.700000000000004,0.2,1,1,1,1,0,0.0,-0.2,0.37,0.0,0,0.0,-0.2,0.37,0.0,0,0.0,-0.2,0.37,0.0,0,0.0,-0.2,0.37,0.0,6416.823871578999,0.0,0.19997270761392177,0.0,5.044895153105714,5.0,25.85885447437448,0.8149944334332446,0.0,2.1297567331284326,6416.823871578999,0.0,0.19997270761392177,0.0,5.044895153105714,5.0,25.85885447437448,0.8149944334332446,0.0,2.1297567331284326,6416.823871578999,0.0,0.19997270761392177,0.0,5.044895153105714,5.0,25.85885447437448,0.8149944334332446,0.0,2.1297567331284326,6416.823871578999,0.0,0.19997270761392177,0.0,5.044895153105714,5.0,25.85885447437448,0.8149944334332446,0.0,2.1297567331284326
6.900000000000004,0.2,1,1,1,1,0,0.0,-0.2,0.37,0.0,0,0.0,-0.2,0.37,0.0,0,0.0,-0.2,0.37,0.0,0,0.0,-0.2,0.37,0.0,6415.084703423476,0.0,-0.11938085226919737,0.0,5.21652036139385,5.0,26.266234418943117,0.8067549129463312,0.0,1.9469159840438401,6415.084703423476,0.0,-0.11938085226919737,0.0,5.21652036139385,5.0,26.266234418943117,0.8067549129463312,0.0,1.9469159840438401,6415.084703423476,0.0,-0.11938085226919737,0.0,5.21652036139385,5.0,26.266234418943117,0.8067549129463312,0.0,1.9469159840438401,6415.084703423476,0.0,-0.11938085226919737,0.0,5.21652036139385,5.0,26.266234418943117,0.8067549129463312,0.0,1.9469159840438401
7.100000000000004,0.2,1,1,1,1,0,0.0,-0.2,0.37,0.0,0,0.0,-0.2,0.37,0.0,0,0.0,-0.2,0.37,0.0,0,0.0,-0.2,0.37,0.0,6413.227406347802,0.0,-0.18369374915651304,0.0,5.350131682532972,5.0,26.636614551013857,0.5113700731559001,0.0,1.7550944904586112,6413.227406347802,0.0,-0.18369374915651304,0.0,5.350131682532972,5.0,26.636614551013857,0.5113700731559001,0.0,1.7550944904586112,6413.227406347802,0.0,-0.18369374915651304,0.0,5.350131682532972,5.0,26.636614551013857,0.5113700731559001,0.0,1.7550944904586112,6413.227406347802,0.0,-0.18369374915651304,0.0,5.350131682532972,5.0,26.636614551013857,0.5113700731559001,0.0,1.7550944904586112
7.300000000000004,0.2,1,1,1,1,0,0.0,-0.2,0.37,0.0,0,0.0,-0.2,0.37,0.0,0,0.0,-0.2,0.37,0.0,0,0.0,-0.2,0.37,0.0,6411.327750473168,0.0,-0.19670185279732094,0.0,5.417759862815611,5.0,26.968081723432764,0.16156467343282988,0.0,1.5598958866257153,6411.327750473168,0.0,-0.19670185279732094,0.0,5.417759862815611,5.0,26.968081723432764,0.16156467343282988,0.0,1.5598958866257153,6411.327750473168,0.0,-0.19670185279732094,0.0,5.417759862815611,5.0,26.968081723432764,0.16156467343282988,0.0,1.5598958866257153,6411.327750473168,0.0,-0.19670185279732094,0.0,5.417759862815611,5.0,26.968081723432764,0.16156467343282988,0.0,1.5598958866257153
7.500000000000004,0.2,1,1,1,1,0,0.0,-0.2,0.37,0.0,0,0.0,-0.2,0.37,0.0,0,0.0,-0.2,0.37,0.0,0,0.0,-0.2,0.37,0.0,6409.419809922793,0.0,-0.19933290766375739,0.0,5.414128265504288,5.0,27.26081834829051,-0.19854700547875628,0.0,1.3682184434370848,6409.419809922793,0.0,-0.19933290766375739,0.0,5.414128265504288,5.0,27.26081834829051,-0.19854700547875628,0.0,1.3682184434370848,6409.419809922793,0.0,-0.19933290766375739,0.0,5.414128265504288,5.0,27.26081834829051,-0.19854700547875628,0.0,1.3682184434370848,6409.419809922793,0.0,-0.19933290766375739,0.0,5.414128265504288,5.0,27.26081834829051,-0.19854700547875628,0.0,1.3682184434370848
7.700000000000005,0.2,1,1,1,1,0,0.0,-0.2,0.37,0.0,0,0.0,-0.2,0.37,0.0,0,0.0,-0.2,0.37,0.0,0,0.0,-0.2,0.37,0.0,6407.510205412823,0.0,-0.19986507206691315,0.0,5.338297442609926,5.0,27.515669133205645,-0.5594479483405218,0.0,1.1810177934987862,6407.510205412823,0.0,-0.19986507206691315,0.0,5.338297442609926,5.0,27.515669133205645,-0.5594479483405218,0.0,1.1810177934987862,6407.510205412823,0.0,-0.19986507206691315,0.0,5.338297442609926,5.0,27.515669133205645,-0.5594479483405218,0.0,1.1810177934987862,6407.510205412823,0.0,-0.19986507206691315,0.0,5.338297442609926,5.0,27.515669133205645,-0.5594479483405218,0.0,1.1810177934987862
7.900000000000005,0.2,1,1,1,1,0,0.0,0.2,0.37,0.0,0,0.0,0.2,0.37,0.0,0,0.0,0.2,0.37,0.0,0,0.0,0.2,0.37,0.0,6405.600264826533,0.0,-0.19997270910466514,0.0,5.190590413502401,5.0,27.73349466649967,-0.9167613475977575,0.0,0.997859767152426,6405.600264826533,0.0,-0.19997270910466514,0.0,5.190590413502401,5.0,27.73349466649967,-0.9167613475977575,0.0,0.997859767152426,6405.600264826533,0.0,-0.19997270910466514,0.0,5.190590413502401,5.0,27.73349466649967,-0.9167613475977575,0.0,0.997859767152426,6405.600264826533,0.0,-0.19997270910466514,0.0,5.190590413502401,5.0,27.73349466649967,-0.9167613475977575,0.0,0.997859767152426
8.100000000000005,0.2,1,1,1,1,0,0.0,0.2,0.37,0.0,0,0.0,0.2,0.37,0.0,0,0.0,0.2,0.37,0.0,0,0.0,0.2,0.37,0.0,6403.86109667072,0.0,0.11938085196767494,0.0,4.9988037022727205,5.0,27.91773152839655,-0.906690709421688,0.0,0.8466123712482827,6403.86109667072,0.0,0.11938085196767494,0.0,4.9988037022727205,5.0,27.91773152839655,-0.906690709421688,0.0,0.8466123712482827,6403.86109667072,0.0,0.11938085196767494,0.0,4.9988037022727205,5.0,27.91773152839655,-0.906690709421688,0.0,0.8466123712482827,6403.86109667072,0.0,0.11938085196767494,0.0,4.9988037022727205,5.0,27.91773152839655,-0.906690709421688,0.0,0.8466123712482827
8.300000000000004,0.2,1,1,1,1,0,0.0,0.2,0.37,0.0,0,0.0,0.2,0.37,0.0,0,0.0,0.2,0.37,0.0,0,0.0,0.2,0.37,0.0,6402.003799595251,0.0,0.18369374909552616,0.0,4.845336798650592,5.0,28.070831274716408,-0.6101069659025152,0.0,0.6818277725454421,6402.003799595251,0.0,0.18369374909552616,0.0,4.845336798650592,5.0,28.070831274716408,-0.6101069659025152,0.0,0.6818277725454421,6402.003799595251,0.0,0.18369374909552616,0.0,4.845336798650592,5.0,28.070831274716408,-0.6101069659025152,0.0,0.6818277725454421,6402.003799595251,0.0,0.18369374909552616,0.0,4.845336798650592,5.0,28.070831274716408,-0.6101069659025152,0.0,0.6818277725454421
8.500000000000004,0.2,1,1,1,1,0,0.0,0.2,0.37,0.0,0,0.0,0.2,0.37,0.0,0,0.0,0.2,0.37,0.0,0,0.0,0.2,0.37,0.0,6400.104143720657,0.0,0.19670185278498553,0.0,4.7580222709650295,5.0,28.189971713594826,-0.2598104546002196,0.0,0.509156229847715,6400.104143720657,0.0,0.19670185278498553,0.0,4.7580222709650295,5.0,28.189971713594826,-0.2598104546002196,0.0,0.509156229847715,6400.104143720657,0.0,0.19670185278498553,0.0,4.7580222709650295,5.0,28.189971713594826,-0.2598104546002196,0.0,0.509156229847715,6400.104143720657,0.0,0.19670185278498553,0.0,4.7580222709650295,5.0,28.189971713594826,-0.2598104546002196,0.0,0.509156229847715
8.700000000000003,0.2,1,1,1,1,0,0.0,0.2,0.37,0.0,0,0.0,0.2,0.37,0.0,0,0.0,0.2,0.37,0.0,0,0.0,0.2,0.37,0.0,6398.19620317029,0.0,0.19933290766126238,0.0,4.741998281645232,5.0,28.274454633706466,0.10020693284489911,0.0,0.33572660838373464,6398.19620317029,0.0,0.19933290766126238,0.0,4.741998281645232,5.0,28.274454633706466,0.10020693284489911,0.0,0.33572660838373464,6398.19620317029,0.0,0.19933290766126238,0.0,4.741998281645232,5.0,28.274454633706466,0.10020693284489911,0.0,0.33572660838373464,6398.19620317029,0.0,0.19933290766126238,0.0,4.741998281645232,5.0,28.274454633706466,0.10020693284489911,0.0,0.33572660838373464
8.900000000000002,0.2,1,1,1,1,0,0.0,0.2,0.37,0.0,0,0.0,0.2,0.37,0.0,0,0.0,0.2,0.37,0.0,0,0.0,0.2,0.37,0.0,6396.286598660321,0.0,0.1998650720664085,0.0,4.7981858084001665,5.0,28.324294904026143,0.4614733359087595,0.0,0.16274974510967183,6396.286598660321,0.0,0.1998650720664085,0.0,4.7981858084001665,5.0,28.324294904026143,0.4614733359087595,0.0,0.16274974510967183,6396.286598660321,0.0,0.1998650720664085,0.0,4.7981858084001665,5.0,28.324294904026143,0.4614733359087595,0.0,0.16274974510967183,6396.286598660321,0.0,0.1998650720664085,0.0,4.7981858084001665,5.0,28.324294904026143,0.4614733359087595,0.0,0.16274974510967183
9.100000000000001,0.2,1,1,1,1,0,0.0,-0.2,0.37,0.0,0,0.0,-0.2,0.37,0.0,0,0.0,-0.2,0.37,0.0,0,0.0,-0.2,0.37,0.0,6394.376658074031,0.0,0.19997270910456305,0.0,4.926392621018296,5.0,28.3395702499944,0.8198481885276379,0.0,-0.00999812667185915,6394.376658074031,0.0,0.19997270910456305,0.0,4.926392621018296,5.0,28.3395702499944,0.8198481885276379,0.0,-0.00999812667185915,6394.376658074031,0.0,0.19997270910456305,0.0,4.926392621018296,5.0,28.3395702499944,0.8198481885276379,0.0,-0.00999812667185915,6394.376658074031,0.0,0.19997270910456305,0.0,4.926392621018296,5.0,28.3395702499944,0.8198481885276379,0.0,-0.00999812667185915
9.3,0.2,1,1,1,1,0,0.0,-0.2,0.37,0.0,0,0.0,-0.2,0.37,0.0,0,0.0,-0.2,0.37,0.0,0,0.0,-0.2,0.37,0.0,6392.637489918218,0.0,-0.11938085196769559,0.0,5.098965765106436,5.0,28.322994424867428,0.8115284772504919,0.0,-0.15407542208574357,6392.637489918218,0.0,-0.11938085196769559,0.0,5.098965765106436,5.0,28.322994424867428,0.8115284772504919,0.0,-0.15407542208574357,6392.637489918218,0.0,-0.11938085196769559,0.0,5.098965765106436,5.0,28.322994424867428,0.8115284772504919,0.0,-0.15407542208574357,6392.637489918218,0.0,-0.11938085196769559,0.0,5.098965765106436,5.0,28.322994424867428,0.8115284772504919,0.0,-0.15407542208574357
9.5,0.2,1,1,1,1,0,0.0,-0.2,0.37,0.0,0,0.0,-0.2,0.37,0.0,0,0.0,-0.2,0.37,0.0,0,0.0,-0.2,0.37,0.0,6390.780192842749,0.0,-0.18369374909553038,0.0,5.233567206404845,5.0,28.276489993029536,0.5165308751672351,0.0,-0.3138220990288241,6390.780192842749,0.0,-0.18369374909553038,0.0,5.233567206404845,5.0,28.276489993029536,0.5165308751672351,0.0,-0.3138220990288241,6390.780192842749,0.0,-0.18369374909553038,0.0,5.233567206404845,5.0,28.276489993029536,0.5165308751672351,0.0,-0.3138220990288241,6390.780192842749,0.0,-0.18369374909553038,0.0,5.233567206404845,5.0,28.276489993029536,0.5165308751672351,0.0,-0.3138220990288241
9.7,0.2,1,1,1,1,0,0.0,-0.2,0.37,0.0,0,0.0,-0.2,0.37,0.0,0,0.0,-0.2,0.37,0.0,0,0.0,-0.2,0.37,0.0,6388.880536968155,0.0,-0.19670185278498634,0.0,5.302277075838114,5.0,28.19689057133693,0.16723237866814628,0.0,-0.4827112960098433,6388.880536968155,0.0,-0.19670185278498634,0.0,5.302277075838114,5.0,28.19689057133693,0.16723237866814628,0.0,-0.4827112960098433,6388.880536968155,0.0,-0.19670185278498634,0.0,5.302277075838114,5.0,28.19689057133693,0.16723237866814628,0.0,-0.4827112960098433,6388.880536968155,0.0,-0.19670185278498634,0.0,5.302277075838114,5.0,28.19689057133693,0.16723237866814628,0.0,-0.4827112960098433
9.899999999999999,0.2,1,1,1,1,0,0.0,-0.2,0.37,0.0,0,0.0,-0.2,0.37,0.0,0,0.0,-0.2,0.37,0.0,0,0.0,-0.2,0.37,0.0,6386.972596417788,0.0,-0.19933290766126258,0.0,5.299834097436853,5.0,28.083358097292734,-0.19232849801689275,0.0,-0.652482254244623,6386.972596417788,0.0,-0.19933290766126258,0.0,5.299834097436853,5.0,28.083358097292734,-0.19232849801689275,0.0,-0.652482254244623,6386.972596417788,0.0,-0.19933290766126258,0.0,5.299834097436853,5.0,28.083358097292734,-0.19232849801689275,0.0,-0.652482254244623,6386.972596417788,0.0,-0.19933290766126258,0.0,5.299834097436853,5.0,28.083358097292734,-0.19232849801689275,0.0,-0.652482254244623
10.099999999999998,0.2,1,1,1,1,0,0.0,-0.2,0.37,0.0,0,0.0,-0.2,0.37,0.0,0,0.0,-0.2,0.37,0.0,0,0.0,-0.2,0.37,0.0,6385.062991907819,0.0,-0.19986507206640858,0.0,5.225299424541391,5.0,27.935999637709966,-0.552713196294613,0.0,-0.820757751370653,6385.062991907819,0.0,-0.19986507206640858,0.0,5.225299424541391,5.0,27.935999637709966,-0.552713196294613,0.0,-0.820757751370653,6385.062991907819,0.0,-0.19986507206640858,0.0,5.225299424541391,5.0,27.935999637709966,-0.552713196294613,0.0,-0.820757751370653,6385.062991907819,0.0,-0.19986507206640858,0.0,5.225299424541391,5.0,27.935999637709966,-0.552713196294613,0.0,-0.820757751370653
10.299999999999997,0.2,1,1,1,1,0,0.0,0.2,0.37,0.0,0,0.0,0.2,0.37,0.0,0,0.0,0.2,0.37,0.0,0,0.0,0.2,0.37,0.0,6383.153051321529,0.0,-0.1999727091045631,0.0,5.078986615091705,5.0,27.75521569096803,-0.9095633332547334,0.0,-0.9866255503024396,6383.153051321529,0.0,-0.1999727091045631,0.0,5.078986615091705,5.0,27.75521569096803,-0.9095633332547334,0.0,-0.9866255503024396,6383.153051321529,0.0,-0.1999727091045631,0.0,5.078986615091705,5.0,27.75521569096803,-0.9095633332547334,0.0,-0.9866255503024396,6383.153051321529,0.0,-0.1999727091045631,0.0,5.078986615091705,5.0,27.75521569096803,-0.9095633332547334,0.0,-0.9866255503024396
10.499999999999996,0.2,1,1,1,1,0,0.0,0.2,0.37,0.0,0,0.0,0.2,0.37,0.0,0,0.0,0.2,0.37,0.0,0,0.0,0.2,0.37,0.0,6381.4138831657165,0.0,0.11938085196769557,0.0,4.888640235367171,5.0,27.544235909715123,-0.8996316813234894,0.0,-1.1210646361740704,6381.4138831657165,0.0,0.11938085196769557,0.0,4.888640235367171,5.0,27.544235909715123,-0.8996316813234894,0.0,-1.1210646361740704,6381.4138831657165,0.0,0.11938085196769557,0.0,4.888640235367171,5.0,27.544235909715123,-0.8996316813234894,0.0,-1.1210646361740704,6381.4138831657165,0.0,0.11938085196769557,0.0,4.888640235367171,5.0,27.544235909715123,-0.8996316813234894,0.0,-1.1210646361740704
10.699999999999996,0.2,1,1,1,1,0,0.0,0.2,0.37,0.0,0,0.0,0.2,0.37,0.0,0,0.0,0.2,0.37,0.0,0,0.0,0.2,0.37,0.0,6379.556586090247,0.0,0.18369374909553038,0.0,4.73653147583611,5.0,27.305516412857276,-0.6036054053069463,0.0,-1.2685149881598603,6379.556586090247,0.0,0.18369374909553038,0.0,4.73653147583611,5.0,27.305516412857276,-0.6036054053069463,0.0,-1.2685149881598603,6379.556586090247,0.0,0.18369374909553038,0.0,4.73653147583611,5.0,27.305516412857276,-0.6036054053069463,0.0,-1.2685149881598603,6379.556586090247,0.0,0.18369374909553038,0.0,4.73653147583611,5.0,27.305516412857276,-0.6036054053069463,0.0,-1.2685149881598603
10.899999999999995,0.2,1,1,1,1,0,0.0,0.2,0.37,0.0,0,0.0,0.2,0.37,0.0,0,0.0,0.2,0.37,0.0,0,0.0,0.2,0.37,0.0,6377.656930215653,0.0,0.19670185278498634,0.0,4.650457271005649,5.0,27.0364428586623,-0.25390648373394353,0.0,-1.4222909554511534,6377.656930215653,0.0,0.19670185278498634,0.0,4.650457271005649,5.0,27.0364428586623,-0.25390648373394353,0.0,-1.4222909554511534,6377.656930215653,0.0,0.19670185278498634,0.0,4.650457271005649,5.0,27.0364428586623,-0.25390648373394353,0.0,-1.4222909554511534,6377.656930215653,0.0,0.19670185278498634,0.0,4.650457271005649,5.0,27.0364428586623,-0.25390648373394353,0.0,-1.4222909554511534
11.099999999999994,0.2,1,1,1,1,0,0.0,0.2,0.37,0.0,0,0.0,0.2,0.37,0.0,0,0.0,0.2,0.37,0.0,0,0.0,0.2,0.37,0.0,6375.748989665286,0.0,0.19933290766126258,0.0,4.635556380229352,5.0,26.736733662256643,0.10553711721032447,0.0,-1.5742297468229782,6375.748989665286,0.0,0.19933290766126258,0.0,4.635556380229352,5.0,26.736733662256643,0.10553711721032447,0.0,-1.5742297468229782,6375.748989665286,0.0,0.19933290766126258,0.0,4.635556380229352,5.0,26.736733662256643,0.10553711721032447,0.0,-1.5742297468229782,6375.748989665286,0.0,0.19933290766126258,0.0,4.635556380229352,5.0,26.736733662256643,0.10553711721032447,0.0,-1.5742297468229782
11.299999999999994,0.2,1,1,1,1,0,0.0,0.2,0.37,0.0,0,0.0,0.2,0.37,0.0,0,0.0,0.2,0.37,0.0,0,0.0,0.2,0.37,0.0,6373.839385155317,0.0,0.19986507206640858,0.0,4.69275117303433,5.0,26.407020247653822,0.46621004674583033,0.0,-1.72215817673945,6373.839385155317,0.0,0.19986507206640858,0.0,4.69275117303433,5.0,26.407020247653822,0.46621004674583033,0.0,-1.72215817673945,6373.839385155317,0.0,0.19986507206640858,0.0,4.69275117303433,5.0,26.407020247653822,0.46621004674583033,0.0,-1.72215817673945,6373.839385155317,0.0,0.19986507206640858,0.0,4.69275117303433,5.0,26.407020247653822,0.46621004674583033,0.0,-1.72215817673945
11.499999999999993,0.2,1,1,1,1,0,0.0,-0.2,0.37,0.0,0,0.0,-0.2,0.37,0.0,0,0.0,-0.2,0.37,0.0,0,0.0,-0.2,0.37,0.0,6371.9294445690275,0.0,0.1999727091045631,0.0,4.821843468825137,5.0,26.048182149485786,0.8239622921604938,0.0,-1.8654079157563905,6371.9294445690275,0.0,0.1999727091045631,0.0,4.821843468825137,5.0,26.048182149485786,0.8239622921604938,0.0,-1.8654079157563905,6371.9294445690275,0.0,0.1999727091045631,0.0,4.821843468825137,5.0,26.048182149485786,0.8239622921604938,0.0,-1.8654079157563905,6371.9294445690275,0.0,0.1999727091045631,0.0,4.821843468825137,5.0,26.048182149485786,0.8239622921604938,0.0,-1.8654079157563905
11.699999999999992,0.2,1,1,1,1,0,0.0,-0.2,0.37,0.0,0,0.0,-0.2,0.37,0.0,0,0.0,-0.2,0.37,0.0,0,0.0,-0.2,0.37,0.0,6370.190276413215,0.0,-0.11938085196769557,0.0,4.995217854884674,5.0,25.663861019570156,0.8155746617785257,0.0,-1.9754732945446067,6370.190276413215,0.0,-0.11938085196769557,0.0,4.995217854884674,5.0,25.663861019570156,0.8155746617785257,0.0,-1.9754732945446067,6370.190276413215,0.0,-0.11938085196769557,0.0,4.995217854884674,5.0,25.663861019570156,0.8155746617785257,0.0,-1.9754732945446067,6370.190276413215,0.0,-0.11938085196769557,0.0,4.995217854884674,5.0,25.663861019570156,0.8155746617785257,0.0,-1.9754732945446067
11.899999999999991,0.2,1,1,1,1,0,0.0,-0.2,0.37,0.0,0,0.0,-0.2,0.37,0.0,0,0.0,-0.2,0.37,0.0,0,0.0,-0.2,0.37,0.0,6368.332979337745,0.0,-0.18369374909553038,0.0,5.130664946125227,5.0,25.256811769708463,0.5209736005607536,0.0,-2.0971605141944805,6368.332979337745,0.0,-0.18369374909553038,0.0,5.130664946125227,5.0,25.256811769708463,0.5209736005607536,0.0,-2.0971605141944805,6368.332979337745,0.0,-0.18369374909553038,0.0,5.130664946125227,5.0,25.256811769708463,0.5209736005607536,0.0,-2.0971605141944805,6368.332979337745,0.0,-0.18369374909553038,0.0,5.130664946125227,5.0,25.256811769708463,0.5209736005607536,0.0,-2.0971605141944805
12.09999999999999,0.2,1,1,1,1,0,0.0,-0.2,0.37,0.0,0,0.0,-0.2,0.37,0.0,0,0.0,-0.2,0.37,0.0,0,0.0,-0.2,0.37,0.0,6366.433323463151,0.0,-0.19670185278498634,0.0,5.200313415999438,5.0,24.82470409357277,0.1721864124079523,0.0,-2.2237625447686042,6366.433323463151,0.0,-0.19670185278498634,0.0,5.200313415999438,5.0,24.82470409357277,0.1721864124079523,0.0,-2.2237625447686042,6366.433323463151,0.0,-0.19670185278498634,0.0,5.200313415999438,5.0,24.82470409357277,0.1721864124079523,0.0,-2.2237625447686042,6366.433323463151,0.0,-0.19670185278498634,0.0,5.200313415999438,5.0,24.82470409357277,0.1721864124079523,0.0,-2.2237625447686042
12.29999999999999,0.2,1,1,1,1,0,0.0,-0.2,0.37,0.0,0,0.0,-0.2,0.37,0.0,0,0.0,-0.2,0.37,0.0,0,0.0,-0.2,0.37,0.0,6364.525382912784,0.0,-0.19933290766126258,0.0,5.198916419672902,5.0,24.36752162867716,-0.18682228646266347,0.0,-2.347307347141,6364.525382912784,0.0,-0.19933290766126258,0.0,5.198916419672902,5.0,24.36752162867716,-0.18682228646266347,0.0,-2.347307347141,6364.525382912784,0.0,-0.19933290766126258,0.0,5.198916419672902,5.0,24.36752162867716,-0.18682228646266347,0.0,-2.347307347141,6364.525382912784,0.0,-0.19933290766126258,0.0,5.198916419672902,5.0,24.36752162867716,-0.18682228646266347,0.0,-2.347307347141
12.49999999999999,0.2,1,1,1,1,0,0.0,-0.2,0.37,0.0,0,0.0,-0.2,0.37,0.0,0,0.0,-0.2,0.37,0.0,0,0.0,-0.2,0.37,0.0,6362.6157784028155,0.0,-0.19986507206640858,0.0,5.125535954508675,5.0,23.88611450528064,-0.5466847004702405,0.0,-2.465878499521247,6362.6157784028155,0.0,-0.19986507206640858,0.0,5.125535954508675,5.0,23.88611450528064,-0.5466847004702405,0.0,-2.465878499521247,6362.6157784028155,0.0,-0.19986507206640858,0.0,5.125535954508675,5.0,23.88611450528064,-0.5466847004702405,0.0,-2.465878499521247,6362.6157784028155,0.0,-0.19986507206640858,0.0,5.125535954508675,5.0,23.88611450528064,-0.5466847004702405,0.0,-2.465878499521247
12.699999999999989,0.2,1,1,1,1,0,0.0,0.2,0.37,0.0,0,0.0,0.2,0.37,0.0,0,0.0,0.2,0.37,0.0,0,0.0,0.2,0.37,0.0,6360.705837816526,0.0,-0.1999727091045631,0.0,4.980477143410821,5.0,23.38152852936445,-0.9030604441981955,0.0,-2.5790707036051583,6360.705837816526,0.0,-0.1999727091045631,0.0,4.980477143410821,5.0,23.38152852936445,-0.9030604441981955,0.0,-2.5790707036051583,6360.705837816526,0.0,-0.1999727091045631,0.0,4.980477143410821,5.0,23.38152852936445,-0.9030604441981955,0.0,-2.5790707036051583,6360.705837816526,0.0,-0.1999727091045631,0.0,4.980477143410821,5.0,23.38152852936445,-0.9030604441981955,0.0,-2.5790707036051583
12.899999999999988,0.2,1,1,1,1,0,0.0,0.2,0.37,0.0,0,0.0,0.2,0.37,0.0,0,0.0,0.2,0.37,0.0,0,0.0,0.2,0.37,0.0,6358.966669660713,0.0,0.11938085196769557,0.0,4.7914334852969365,5.0,22.857506630376136,-0.8932537381622706,0.0,-2.6588356804329973,6358.966669660713,0.0,0.11938085196769557,0.0,4.7914334852969365,5.0,22.857506630376136,-0.8932537381622706,0.0,-2.6588356804329973,6358.966669660713,0.0,0.11938085196769557,0.0,4.7914334852969365,5.0,22.857506630376136,-0.8932537381622706,0.0,-2.6588356804329973,6358.966669660713,0.0,0.11938085196769557,0.0,4.7914334852969365,5.0,22.857506630376136,-0.8932537381622706,0.0,-2.6588356804329973
13.099999999999987,0.2,1,1,1,1,0,0.0,0.2,0.37,0.0,0,0.0,0.2,0.37,0.0,0,0.0,0.2,0.37,0.0,0,0.0,0.2,0.37,0.0,6357.109372585243,0.0,0.18369374909553038,0.0,4.640547836843025,5.0,22.316810146599213,-0.597773818619571,0.0,-2.7502689904005186,6357.109372585243,0.0,0.18369374909553038,0.0,4.640547836843025,5.0,22.316810146599213,-0.597773818619571,0.0,-2.7502689904005186,6357.109372585243,0.0,0.18369374909553038,0.0,4.640547836843025,5.0,22.316810146599213,-0.597773818619571,0.0,-2.7502689904005186,6357.109372585243,0.0,0.18369374909553038,0.0,4.640547836843025,5.0,22.316810146599213,-0.597773818619571,0.0,-2.7502689904005186
13.299999999999986,0.2,1,1,1,1,0,0.0,0.2,0.51,0.0,0,0.0,0.2,0.51,0.0,0,0.0,0.2,0.51,0.0,0,0.0,0.2,0.51,0.0,6355.209716710649,0.0,0.19670185278498634,0.0,4.555580684647758,5.0,21.757105347297824,-0.24866605588789056,0.0,-2.846637366616985,6355.209716710649,0.0,0.19670185278498634,0.0,4.555580684647758,5.0,21.757105347297824,-0.24866605588789056,0.0,-2.846637366616985,6355.209716710649,0.0,0.19670185278498634,0.0,4.555580684647758,5.0,21.757105347297824,-0.24866605588789056,0.0,-2.846637366616985,6355.209716710649,0.0,0.19670185278498634,0.0,4.555580684647758,5.0,21.757105347297824,-0.24866605588789056,0.0,-2.846637366616985
13.499999999999986,0.2,1,1,1,1,0,0.0,0.2,0.51,0.0,0,0.0,0.2,0.51,0.0,0,0.0,0.2,0.51,0.0,0,0.0,0.2,0.51,0.0,6352.579852708794,0.0,0.19933290766126258,0.0,4.555174068572713,5.0,21.244526810435264,0.2458069133702582,0.0,-2.282627979277444,6352.579852708794,0.0,0.19933290766126258,0.0,4.555174068572713,5.0,21.244526810435264,0.2458069133702582,0.0,-2.282627979277444,6352.579852708794,0.0,0.19933290766126258,0.0,4.555174068572713,5.0,21.244526810435264,0.2458069133702582,0.0,-2.282627979277444,6352.579852708794,0.0,0.19933290766126258,0.0,4.555174068572713,5.0,21.244526810435264,0.2458069133702582,0.0,-2.282627979277444
13.699999999999985,0.2,1,1,1,1,0,0.0,0.2,0.51,0.0,0,0.0,0.2,0.51,0.0,0,0.0,0.2,0.51,0.0,0,0.0,0.2,0.51,0.0,6349.947695141,0.0,0.19986507206640858,0.0,4.65389411111488,5.0,20.8421427903605,0.7407701136174013,0.0,-1.744954921274206,6349.947695141,0.0,0.19986507206640858,0.0,4.65389411111488,5.0,20.8421427903605,0.7407701136174013,0.0,-1.744954921274206,6349.947695141,0.0,0.19986507206640858,0.0,4.65389411111488,5.0,20.8421427903605,0.7407701136174013,0.0,-1.744954921274206,6349.947695141,0.0,0.19986507206640858,0.0,4.65389411111488,5.0,20.8421427903605,0.7407701136174013,0.0,-1.744954921274206
13.899999999999984,0.2,1,1,1,1,0,0.0,-0.2,0.51,0.0,0,0.0,-0.2,0.51,0.0,0,0.0,-0.2,0.51,0.0,0,0.0,-0.2,0.51,0.0,6347.315074332869,0.0,0.1999727091045631,0.0,4.851031633390378,5.0,20.54528079480139,1.229020379036586,0.0,-1.2263286406126135,6347.315074332869,0.0,0.1999727091045631,0.0,4.851031633390378,5.0,20.54528079480139,1.229020379036586,0.0,-1.2263286406126135,6347.315074332869,0.0,0.1999727091045631,0.0,4.851031633390378,5.0,20.54528079480139,1.229020379036586,0.0,-1.2263286406126135,6347.315074332869,0.0,0.1999727091045631,0.0,4.851031633390378,5.0,20.54528079480139,1.229020379036586,0.0,-1.2263286406126135
14.099999999999984,0.2,1,1,1,1,0,0.0,-0.2,0.51,0.0,0,0.0,-0.2,0.51,0.0,0,0.0,-0.2,0.51,0.0,0,0.0,-0.2,0.51,0.0,6344.917842550531,0.0,-0.11938085196769557,0.0,5.10801998000724,5.0,20.354442927823694,1.2113085635392629,0.0,-0.6815642941947524,6344.917842550531,0.0,-0.11938085196769557,0.0,5.10801998000724,5.0,20.354442927823694,1.2113085635392629,0.0,-0.6815642941947524,6344.917842550531,0.0,-0.11938085196769557,0.0,5.10801998000724,5.0,20.354442927823694,1.2113085635392629,0.0,-0.6815642941947524,6344.917842550531,0.0,-0.11938085196769557,0.0,5.10801998000724,5.0,20.354442927823694,1.2113085635392629,0.0,-0.6815642941947524
14.299999999999983,0.2,1,1,1,1,0,-0.35,0.2,0.51,0.0,0,-0.35,0.2,0.51,0.0,0,-0.35,-0.2,0.51,0.0,0,-0.35,-0.2,0.51,0.0,6342.357784419482,0.0,-0.18369374909553038,0.0,5.311753970213977,5.0,20.270124733794155,0.8018550720108166,0.0,-0.16645800256341844,6342.357784419482,0.0,-0.18369374909553038,0.0,5.311753970213977,5.0,20.270124733794155,0.8018550720108166,0.0,-0.16645800256341844,6342.357784419482,0.0,-0.18369374909553038,0.0,5.311753970213977,5.0,20.270124733794155,0.8018550720108166,0.0,-0.16645800256341844,6342.357784419482,0.0,-0.18369374909553038,0.0,5.311753970213977,5.0,20.270124733794155,0.8018550720108166,0.0,-0.16645800256341844
14.499999999999982,0.2,1,1,1,1,0,-1.4000000000000001,0.2,0.37,0.0,0,-2.8000000000000003,0.2,0.37,0.0,0,-4.2,-0.2,0.37,0.0,0,-5.6000000000000005,-0.2,0.37,0.0,6339.62063409773,-0.27945341553152264,0.12267347925103957,0.0,5.461183228428271,5.032307122588015,20.287422181026848,0.8146635490946615,0.434233376973523,0.32236865916838947,6339.62063409773,-0.27945341553152264,0.12267347925103957,0.0,5.461183228428271,5.032307122588015,20.287422181026848,0.8146635490946615,0.434233376973523,0.32236865916838947,6339.406611444369,-0.27945341553152264,-0.19670185278498634,0.0,5.424945479523507,5.031783892178394,20.28405539771206,0.32935100724584077,0.4274791460521077,0.286855552926963,6339.406611444369,-0.27945341553152264,-0.19670185278498634,0.0,5.424945479523507,5.031783892178394,20.28405539771206,0.32935100724584077,0.4274791460521077,0.286855552926963
14.699999999999982,0.2,1,1,1,1,0,-0.35,0.2,0.37,0.0,0,-0.35,0.2,0.37,0.0,0,-0.35,-0.2,0.37,0.0,0,-0.35,-0.2,0.37,0.0,6337.273162840605,-1.1740913001361486,0.18435972495768652,0.0,5.643359280478841,5.230277152640447,20.289806623000093,0.989128334306018,1.7180287754525678,-0.48303017848124674,6337.451410099922,-2.29190496226224,0.18435972495768652,0.0,5.63019226243363,5.262724307947084,20.209492374875918,0.793583049366147,1.9330467095667203,-1.6208869007347275,6337.20023279018,-3.4097186243883306,-0.19933290766126258,0.0,5.4949295107635505,5.2354617385349895,20.125076464099656,0.49144413900607753,1.26243120998876,-2.470038097055581,6337.1593031028,-4.527532286514421,-0.19933290766126258,0.0,5.501523366390849,5.179217666963652,20.09226867857672,0.4901647772908757,0.35813318721152415,-2.4631797776406152
14.89999999999998,0.2,1,1,1,1,0,-0.9919166421701613,0.2,0.51,0.0,0,-2.3398278518614726,0.2,0.51,0.0,0,-3.8815844712124514,-0.2,0.51,0.0,0,-5.478192415807873,-0.2,0.51,0.0,6334.843573456672,-0.5159468376231119,0.19683655489694973,0.0,5.861999244287941,5.703162254870637,20.111093076005396,1.2250892953424624,2.8695935002869453,-1.1670708559106464,6335.258713075325,-0.7410573896633428,0.19683655489694973,0.0,5.788547345901886,5.805984697114573,19.694727222350743,0.8710004698555368,3.416309257498823,-3.098715521833171,6335.044284072566,-0.9661679417035737,-0.19986507206640858,0.0,5.611234577137348,5.593389505318801,19.356614934246455,0.5613235500709562,2.56243240611602,-4.643175163706105,6335.017882504952,-1.1912784937438048,-0.19986507206640858,0.0,5.621761212560254,5.270801154926547,19.304658271464685,0.6377564368549907,1.1616984571574227,-5.011586048223169
15.09999999999998,0.2,1,1,1,1,0,-0.35,0.2,0.51,0.0,0,-0.35,0.2,0.51,0.0,0,-0.35,-0.2,0.51,0.0,0,-0.35,-0.2,0.51,0.0,6331.448120358296,-0.8960957162231528,0.1993601528813951,0.0,6.142889165125147,6.421747933967388,19.870782903580352,1.5628789712306912,4.410757345457282,-1.3354083364605838,6332.435258504145,-2.017851171804195,0.1993601528813951,0.0,5.972660668983272,6.696632686237605,18.9447018043694,0.8728350962082445,5.508493806113672,-4.86271520447784,6332.032730180818,-3.2943802325695266,-0.1999727091045631,0.0,5.741799150206509,6.271655215708047,18.169144335446664,0.8643889533008802,3.673991106415463,-7.760144974653725,6331.940734771516,-4.614704693866259,-0.1999727091045631,0.0,5.77782164328752,5.552072124927842,17.999204487223256,0.9152909406510421,0.670920168485044,-7.938558252438169
15.29999999999998,0.2,1,1,1,1,0,-0.1197591093976752,0.2,0.51,0.0,0,-1.2232440866307366,0.2,0.51,0.0,0,-3.1091383183186543,-0.2,0.51,0.0,0,-5.3112357713231955,-0.2,0.51,0.0,6328.060007351164,-0.46000478596791833,0.19987058275966532,0.0,6.490577841179426,7.435849778196039,19.59688187932993,1.9331299324703617,5.572665223678338,-1.2993678929459231,6329.3914205513875,-0.6859491346290367,0.19987058275966532,0.0,6.154429207574697,7.986359530246225,17.84440282717948,1.041977209284591,7.195612302495987,-5.645435239334415,6329.0534603767555,-0.9430625169894071,-0.1999944800683304,0.0,5.937283354059251,7.14999173705042,16.380524457259142,0.9380484700044014,5.376276722701827,-9.330766772824955,6328.998020425849,-1.208995622282574,-0.1999944800683304,0.0,5.9905942366559275,5.704819245285264,16.14284103661825,1.1161833202984457,1.7154347468015299,-10.081282156511076
15.499999999999979,0.2,1,1,1,1,0,0.35,0.2,0.51,0.0,0,-0.35,0.2,0.51,0.0,0,-0.35,-0.2,0.51,0.0,0,-0.35,-0.2,0.51,0.0,6324.92150513909,-0.1884167187497927,0.19997382371255756,0.0,6.91976487251307,8.597436708133285,19.37354041111404,2.3622071904614717,5.933765516298757,-0.9033533423988693,6326.10949730548,-1.115181547457463,0.19997382371255756,0.0,6.392789268941522,9.556015455656325,16.705469546392646,1.3127513673177,8.566716516102803,-5.876445006738744,6325.941517189535,-2.672956249333962,-0.19999888352341877,0.0,6.131829646690955,8.404391041119952,14.37361346004774,1.127578198775152,6.909950123763404,-11.26398859565177,6325.86919596996,-4.4849836246573265,-0.19999888352341877,0.0,6.242083929312451,6.105022643877462,13.900576280441966,1.4047316840379631,1.3212540796234862,-12.28286525888099
15.699999999999978,0.2,1,1,1,1,0,0.7940353815370713,0.2,0.51,0.0,0,0.18902763080433171,0.2,0.51,0.0,0,-1.8647804837337327,-0.2,0.51,0.0,0,-5.026342843789614,-0.2,0.51,0.0,6322.035545650966,0.2414276923052142,0.19999470551201293,0.0,7.43531623766724,9.747206581495446,19.24096060508424,2.787643853181167,5.404661432218436,-0.4333164276230449,6322.740440911643,-0.5041555095650972,0.19999470551201293,0.0,6.686408212212561,11.368316181669435,15.531956053912594,1.6556727825372857,9.359082183082213,-5.695480128393855,6322.923761742237,-0.8179131404436147,-0.19999977417837195,0.0,6.366243143419772,9.940392989212901,12.012155099001461,1.080221345610189,8.435336347157774,-11.665784209638495,6322.912553886167,-1.1828749322189547,-0.19999977417837195,0.0,6.552040262389987,6.3996184437404136,11.261399512104486,1.5878926110632772,2.437126117694911,-13.523842956796429
15.899999999999977,0.2,1,1,1,1,0,0.35,0.2,0.51,0.0,0,0.35,0.2,0.51,0.0,0,-0.35,-0.2,0.51,0.0,0,-0.35,-0.2,0.51,0.0,6318.690710148431,0.682574734575141,0.19999892912227882,0.0,8.028896623590564,10.697788185116213,19.177907821992253,3.1280139208404454,3.9706827476119013,-0.2801676308943775,6319.813964813574,0.04920040350611312,0.19999892912227882,0.0,7.06198024268689,13.212693389862567,14.461941330003521,2.105429533867086,8.885945441880414,-4.97723875486499,6320.228251318407,-1.6541002002945577,-0.19999995432469567,0.0,6.563991208978285,11.771310612824086,9.70102859222932,0.961658001661692,9.91711297394077,-11.755787770837268,6319.747919684371,-4.252230948634839,-0.19999995432469567,0.0,6.896387761990465,6.962718542790263,8.409352513058948,1.8891477550870854,2.270041021135985,-15.082211158650962
16.099999999999977,0.2,1,1,1,1,0,0.98951724135492,0.2,0.51,0.0,0,1.2767432375376018,0.2,0.51,0.0,0,-0.320610433621102,-0.2,0.51,0.0,0,-4.59643060379153,-0.2,0.51,0.0,6315.3305736384755,0.41695617558689396,0.19999978340132296,0.0,8.686086967765723,11.349914417885175,19.133107177096523,3.451182003878639,2.656285936111887,-0.11430304352418134,6316.805865917875,0.2892723003809432,0.19999978340132296,0.0,7.526964144422027,14.877831352561728,13.534485166970313,2.5374513074720886,7.705397280824889,-4.325190969888003,6317.0814282030815,-0.6127089095108611,-0.19999999076158717,0.0,6.736864525102846,13.864961906445519,7.382810466565401,0.6964866240305145,10.79162022216095,-11.102811043940234,6316.782831550856,-1.135997468863659,-0.19999999076158717,0.0,7.30186856138407,7.4680985969059686,5.282011354621912,2.042212635709079,3.5029877892773853,-15.556599252021957
16.299999999999976,0.2,1,1,1,1,0,0.35,0.2,0.51,0.0,0,0.35,0.2,0.51,0.0,0,0.35,-0.2,0.51,0.0,0,-0.35,-0.2,0.51,0.0,6311.936269885087,0.8741578187213153,0.19999995619015506,0.0,9.403613507745225,11.732994029341105,19.110756235785598,3.698098342686166,1.04367593376734,-0.22288418821054362,6313.482328195716,1.0776643712339578,0.19999995619015506,0.0,8.065922036165256,16.222185013095196,12.681203135630502,2.8075366631589858,5.559464106837348,-4.414227029071859,6313.752898602934,-0.3796704712309133,-0.1999999981314132,0.0,6.832386172018263,16.024569483547275,5.294269322308386,0.2508919575913161,10.72578006527616,-9.786738713110994,6313.655224195613,-3.8994909728075005,-0.1999999981314132,0.0,7.733651127327275,8.271506301375455,2.0854965128340437,2.3460885478520637,3.7121696543842098,-16.691944408083987
16.499999999999975,0.2,1,1,1,1,0,0.6939735149689775,0.2,0.51,0.0,0,1.4541046250341245,0.2,0.51,0.0,0,1.032035468448469,-0.2,0.51,0.0,0,-3.941544304738032,-0.2,0.51,0.0,6308.548598093101,0.4555692485843994,0.19999999113890016,0.0,10.167380309506257,11.788246842841854,19.059482806041746,3.9562133155369157,-0.3556678925172852,-0.19118837220984164,6310.106707558438,0.49652967477822896,0.19999999113890016,0.0,8.653008409425695,17.135255600265555,11.789501070183913,3.0921203233435675,3.7673568708015406,-4.348098088188517,6310.852654501794,0.2028849952831903,-0.19999999962205448,0.0,6.833749895474646,18.085957182026004,3.4688825025157355,-0.23927203593235113,9.695461720609929,-8.49634099905139,6310.687585310853,-1.0649527145370004,-0.19999999962205448,0.0,8.227355928117321,9.094805529916012,-0.22937456035867307,2.449268854000752,5.078217005034443,9.792130135168657
16.699999999999974,0.2,1,1,1,1,0,0.35,0.2,0.51,0.0,0,0.35,0.2,0.51,0.0,0,0.35,-0.2,0.51,0.0,0,-0.35,-0.2,0.51,0.0,6305.153912344894,0.6459943658412215,0.1999999982077295,0.0,10.984717454747303,11.591119698970028,19.034532906476983,4.205505510546212,-1.6754370855247922,-0.09908990767853344,6306.898236931635,1.2611969486172303,0.1999999982077295,0.0,9.293368371198078,17.697992110660955,10.900703596353917,3.260862658326471,1.7008604813068524,-4.774137827932505,6307.4989597943,0.8648073744844623,-0.19999999992355572,0.0,6.743400840534646,19.824680043328243,1.8510447329805926,-0.6346634071191483,7.5384545402440875,-7.8424046619803995,6307.68053513644,-3.3622349421265096,-0.19999999992355572,0.0,8.732740855064314,10.247225571759078,1.4332936866336536,2.712696771066554,5.856107045496816,5.948798627932464
16.899999999999974,0.2,1,1,1,1,0,0.11042609860664926,0.2,0.51,0.0,0,1.0956098872464382,0.2,0.51,0.0,0,1.4586013201807257,-0.2,0.51,0.0,0,-2.959555430808095,-0.2,0.51,0.0,6301.803268310977,0.40962748124579523,0.1999999996374904,0.0,11.850071992228472,11.135553036086465,19.02875517362804,4.453731426835981,-2.7897731424321512,0.08726350561684783,6303.5690071420595,0.5335271340814035,0.1999999996374904,0.0,9.963941417525541,17.84532483034126,9.91872409616711,3.485676839489371,-0.03344486961808561,-4.8312008248709715,6304.111835962647,0.45364819313045607,-0.19999999998453816,0.0,6.57847578030161,21.133331927030593,0.3357044186920201,-1.0330125617432104,5.719724128761215,-7.2306719212163335,6304.704501614052,-0.956744960530945,-0.19999999998453816,0.0,9.292066200745714,11.533829457764186,2.2830575371825166,2.7284460711346163,7.300379342625833,3.3368721922399867
17.099999999999973,0.2,1,1,1,1,0,-0.23999977838222003,0.2,0.51,0.0,0,0.35,0.2,0.51,0.0,0,0.35,-0.2,0.51,0.0,0,-0.35,-0.2,0.51,0.0,6298.703954900983,0.1707754328079644,0.1999999999266778,0.0,12.767554222040943,10.514833636829875,19.083649342731917,4.72210629619167,-3.320863535640897,0.48675588229106803,6300.198750722282,0.982444216840869,0.1999999999266778,0.0,10.684673095832398,17.674795499345624,8.958473770728293,3.693519151992887,-1.7922261794683283,-4.896538924691852,6300.893989459851,1.2561139558082177,-0.19999999999687268,0.0,6.340352441659903,22.075206214201955,0.20962575930384186,-1.2968479693774084,3.5414766016657393,3.7887996741694265,6301.624432893592,-2.556290987131748,-0.19999999999687268,0.0,9.836293110188743,13.152354930187995,2.717907423357196,2.828034985082465,8.6712434626198,0.46332040951451336
17.299999999999972,0.2,1,1,1,1,0,-0.35,0.2,0.51,0.0,0,0.39049750392310917,0.2,0.51,0.0,0,1.2893530603096954,-0.2,0.51,0.0,0,-1.5830919270234014,-0.2,0.51,0.0,6295.8924519549355,-0.15716093090029926,0.19999999998516965,0.0,13.738284817946912,9.85728494757726,19.228325173680396,4.980532610889934,-3.1271008337700885,0.9566190437142019,6296.812143863127,0.4773971738226536,0.19999999998516965,0.0,11.445287273465834,17.15700364797802,7.984912984256947,3.935400323514062,-3.219971701791381,-4.714548630082969,6297.563056384788,0.5324958813960646,-0.19999999999936746,0.0,6.053393118492491,22.584127911711803,0.9042066393617432,-1.6142673868388806,1.7522020288739077,3.373937820998279,6298.605235909025,-0.7944209733964774,-0.19999999999936746,0.0,10.40103482237293,15.018267210083717,2.578929338885105,2.6900806460237243,9.931088254686616,-1.2047188897308445
17.49999999999997,0.2,1,1,1,1,0,-0.6653803814323852,0.2,0.37,0.0,0,-0.04003331892443085,0.2,0.51,0.0,0,0.35,-0.2,0.51,0.0,0,-0.35,-0.2,0.51,0.0,6292.797380587281,-0.3110729582120917,0.19999999999700036,0.0,14.757121645755408,9.295970711259637,19.460557508884605,5.201062511161002,-2.433572412467576,1.3493046122078376,6293.503793981601,0.40810246263172306,0.19999999999700036,0.0,12.260926227015819,16.420165413244682,7.087690771757356,4.219414798033504,-4.112841389832307,-4.253233016821621,6294.270826849949,1.1369276083996507,-0.19999999999987206,0.0,5.699862891407994,22.757439400607648,1.5380868756422856,-1.8822839743241497,-0.16626833780271966,2.7877593209378206,6295.644207975595,-1.4244376690653444,-0.19999999999987206,0.0,10.90960568331753,17.11235947287477,2.2562180663272926,2.443863272489307,11.07012309711062,-2.2442957754050106
