time,step-size,{uavCont}.controller.pitchOut,{uavCont}.controller.rollOut,{uavCont}.controller.throttleOut,{uavCont}.controller.yawOut,{uav}.uav.batteryCharge,{uav}.uav.currentYaw,{uav}.uav.posX,{uav}.uav.posY,{uav}.uav.posZ,{uav}.uav.velX,{uav}.uav.velY,{uav}.uav.velZ
0.0,0.0,0.0,0.0,0.0,0.0,6480.0,0.0,5.0,5.0,0.5,0.0,0.0,0.0
0.1,0.1,0.0,-0.2,0.37,0.0,6480.0,0.0,5.0,5.0,0.4407069742734344,0.0,0.0,-1.0769745290617336
0.2,0.1,0.0,-0.2,0.51,0.0,6479.230778072943,0.0,4.9985507997417615,5.0,0.3409812289410091,-0.04711472568031898,0.0,-1.1297043875339303
0.30000000000000004,0.1,0.0,0.2,0.51,0.0,6477.975722815623,0.0,4.986019958069556,5.0,0.24184442021694622,-0.2150981309143057,0.0,-0.8515728578036552
0.4,0.1,0.0,0.2,0.51,0.0,6476.797682300054,0.0,4.9594681773618,5.0,0.17076286681522418,-0.2726606269778582,0.0,-0.5680999080665848
0.5,0.1,0.0,0.2,0.51,0.0,6475.585243643736,0.0,4.936983012945178,5.0,0.1280327677403002,-0.15845997532107886,0.0,-0.28836317471227324
0.6,0.1,0.0,0.2,0.51,0.0,6474.313634136844,0.0,4.930216001019356,5.0,0.11276179756313646,0.03141174448130031,0.0,-0.01839822142497188
0.7,0.1,0.0,-0.2,0.51,0.0,6473.016984623424,0.0,4.944354844192429,5.0,0.12416171016570873,0.2550306970421959,0.0,0.24565930131706581
0.7999999999999999,0.1,0.0,-0.2,0.51,0.0,6471.825723549225,0.0,4.9763202880981865,5.0,0.16246228401266477,0.33766174931139425,0.0,0.523607495766508
0.8999999999999999,0.1,0.0,-0.2,0.51,0.0,6470.622516162885,0.0,5.00594292346333,5.0,0.22877076452542122,0.23467911819049314,0.0,0.8006442746525837
0.9999999999999999,0.1,0.0,-0.2,0.51,0.0,6469.3547280393195,0.0,5.020617632592834,5.0,0.3222101320779248,0.04986160185115407,0.0,1.0663844802046996
1.0999999999999999,0.1,0.0,-0.2,0.51,0.0,6468.059727709495,0.0,5.01473602300191,5.0,0.4417590385380276,-0.17149490546739385,0.0,1.323338579614638
1.2,0.1,0.0,0.2,0.51,0.0,6466.75287079207,0.0,4.985801988133688,5.0,0.5866654246323795,-0.4088724227535892,0.0,1.5738076238665852
1.3,0.1,0.0,0.2,0.51,0.0,6465.5580115609255,0.0,4.938120465146639,5.0,0.7570514176476424,-0.49728829526193635,0.0,1.8368940778918694
1.4000000000000001,0.1,0.0,0.2,0.51,0.0,6464.357181566086,0.0,4.892399981438693,5.0,0.9538408372533671,-0.39665029293379256,0.0,2.0964386110853126
1.5000000000000002,0.1,0.0,0.2,0.51,0.0,6463.090374315492,0.0,4.861471726706015,5.0,1.175854031988949,-0.21283991880097639,0.0,2.3415485607542816
1.6000000000000003,0.1,0.0,0.2,0.51,0.0,6461.795796509943,0.0,4.851024101680687,5.0,1.4217664515933466,0.007950446203561178,0.0,2.574979618950019
1.7000000000000004,0.1,0.0,-0.2,0.51,0.0,6460.489125788857,0.0,4.863597471675464,5.0,1.6905522819258856,0.24530399824729218,0.0,2.7993411640789505
1.8000000000000005,0.1,0.0,-0.2,0.51,0.0,6459.294332454742,0.0,4.8949435971779325,5.0,1.982086685247443,0.3342079561063837,0.0,3.033917666227611
1.9000000000000006,0.1,0.0,-0.2,0.51,0.0,6458.093458658662,0.0,4.924386742581412,5.0,2.297057087730338,0.23417145251684598,0.0,3.26267819959
2.0000000000000004,0.1,0.0,-0.2,0.51,0.0,6456.826633348276,0.0,4.939090595003319,5.0,2.6340745423916,0.0507869304096996,0.0,3.475103178039674
2.1000000000000005,0.1,0.0,-0.2,0.51,0.0,6455.401767783216,0.0,4.931529647120306,5.0,3.0284827444530786,-0.19298830821641852,0.0,3.6936261279610814
2.2000000000000006,0.1,0.0,0.2,0.51,0.0,6454.094343137492,0.0,4.900414367577885,5.0,3.4073221256487463,-0.43088612004917015,0.0,3.881606014225359
2.3000000000000007,0.1,0.0,0.2,0.51,0.0,6452.899282919247,0.0,4.850522251329887,5.0,3.8052276667187073,-0.5194771830297016,0.0,4.078922625672724
2.400000000000001,0.1,0.0,0.2,0.51,0.0,6451.698586579874,0.0,4.802575558145818,5.0,4.222799138340608,-0.41898520624502,0.0,4.2695680728605545
2.500000000000001,0.1,0.0,0.2,0.51,0.0,6450.431834434327,0.0,4.769405987801681,5.0,4.658574443155679,-0.2353364200408163,0.0,4.443299813747249
2.600000000000001,0.1,0.0,0.2,0.51,0.0,6449.137280356557,0.0,4.756699102649073,5.0,5.111015418141788,-0.014745898032392714,0.0,4.603542906256542
2.700000000000001,0.1,0.0,0.2,0.51,0.0,6447.830620089662,0.0,4.766992531245153,5.0,5.578944475225518,0.22241108074707094,0.0,4.753474909919219
2.800000000000001,0.1,0.0,-0.2,0.51,0.0,6446.518596631784,0.0,4.801405547653965,5.0,6.061431248010473,0.4665299193581016,0.0,4.8949180331635995
2.9000000000000012,0.1,0.0,-0.2,0.51,0.0,6445.321841946266,0.0,4.855015486168389,5.0,6.558396769815653,0.5578209152545115,0.0,5.047001049514301
3.0000000000000013,0.1,0.0,-0.2,0.51,0.0,6444.122233977517,0.0,4.906863905994657,5.0,7.070545353509133,0.45851243980040085,0.0,5.193122353748725
3.1000000000000014,0.1,0.0,-0.2,0.51,0.0,6442.8559304045175,0.0,4.944016771611275,5.0,7.596474279430211,0.2754117240258507,0.0,5.322938013004455
3.2000000000000015,0.1,0.0,-0.2,0.51,0.0,6441.561569441039,0.0,4.960748190103074,5.0,8.134716191916644,0.05514262169583874,0.0,5.440079146387024
3.3000000000000016,0.1,0.0,-0.2,0.51,0.0,6440.254994249943,0.0,4.95450627159203,5.0,8.684184587608206,-0.1818068750600593,0.0,5.547908225640006
3.4000000000000017,0.1,0.0,0.2,0.51,0.0,6438.943008692111,0.0,4.924157369342438,5.0,9.244056210633929,-0.42587549386008466,0.0,5.648384272143936
3.5000000000000018,0.1,0.0,0.2,0.51,0.0,6437.7462706657225,0.0,4.874607759057232,5.0,9.814369098123768,-0.5173029210856661,0.0,5.7606731284242505
3.600000000000002,0.1,0.0,0.2,0.51,0.0,6436.546653685439,0.0,4.826799311322699,5.0,10.39594321333404,-0.41823623678432476,0.0,5.868170927832946
3.700000000000002,0.1,0.0,0.2,0.51,0.0,6435.280346399451,0.0,4.793662106132768,5.0,10.98749933800066,-0.23536756190242256,0.0,5.960664724898391
3.800000000000002,0.1,0.0,0.2,0.51,0.0,6433.985983837773,0.0,4.780925862013246,5.0,11.587705651792337,-0.01527074729308597,0.0,6.041884061756872
3.900000000000002,0.1,0.0,0.2,0.51,0.0,6432.679407942655,0.0,4.791147791017436,5.0,12.195618572557008,0.22152023874191235,0.0,6.115243136160121
4.000000000000002,0.1,0.0,-0.2,0.51,0.0,6431.367422071205,0.0,4.82545607112087,5.0,12.810561273715546,0.46533290706706437,0.0,6.182721915609253
4.100000000000001,0.1,0.0,-0.2,0.51,0.0,6430.1706839069675,0.0,4.878937898765204,5.0,13.432717938658541,0.556509314035731,0.0,6.26344256403392
4.200000000000001,0.1,0.0,-0.2,0.51,0.0,6428.971067001251,0.0,4.930658941742936,5.0,14.063047156728725,0.4572994369083338,0.0,6.340738812896473
4.300000000000001,0.1,0.0,-0.2,0.37,0.0,6427.704759745988,0.0,4.967699556019292,5.0,14.700408073688376,0.27438960351251324,0.0,6.404433449331249
4.4,0.1,0.0,-0.2,0.37,0.0,6426.765712406913,0.0,4.98727130493424,5.0,15.327070543689878,0.11466490956145906,0.0,6.127893883308409
4.5,0.1,-0.35,0.2,0.37,0.0,6425.817804408798,0.0,4.990215739880149,5.0,15.926628713820858,-0.05710846358318297,0.0,5.8656756605915366
4.6,0.1,-0.35,0.2,0.37,0.0,6424.869798172755,0.0,4.979570515326845,5.003413388081205,16.500983625934264,-0.12154907743303973,0.09879231772471854,5.623384031742517
4.699999999999999,0.1,-0.35,0.2,0.37,0.0,6423.83087968498,0.0,4.970200916236005,5.023576910554014,17.051036656797923,-0.05166813976047138,0.3169867587639533,5.375736579758895
4.799999999999999,0.1,-0.35,0.2,0.37,0.0,6422.715355657096,0.0,4.971061334814006,5.068398881914088,17.575893743510886,0.07495092695584475,0.5846058836493245,5.120997845933765
4.899999999999999,0.1,-0.35,0.2,0.37,0.0,6421.569165566606,0.0,4.985977396618247,5.141138472249136,18.07528886404528,0.22598978563929684,0.8721620725495575,4.867696027667033
4.999999999999998,0.1,-0.35,0.2,0.37,0.0,6420.409997044586,0.0,5.016595274769849,5.243051838238909,18.549650568006747,0.3874612175140837,1.1666249169957905,4.620881818130595
5.099999999999998,0.1,-0.35,0.2,0.37,0.0,6419.24516009784,0.0,5.063603238950645,5.374484756279797,18.9997483601871,0.5530905019325053,1.4618312446571844,4.3825944209399035
5.1999999999999975,0.1,-0.35,0.2,0.37,0.0,6418.07780827119,0.0,5.12725193355922,5.53533610417919,19.42646675756023,0.7199368741220555,1.7545978659788053,4.153293230064982
5.299999999999997,0.1,-0.35,0.2,0.37,0.0,6416.909332403757,0.0,5.207581666080965,5.725262441718131,19.830695558797924,0.8865340867265955,2.0430861770761504,3.9327273263760625
5.399999999999997,0.1,-0.35,0.2,0.37,0.0,6415.740352431372,0.0,5.304523687313195,5.943772092900208,20.21328298632506,1.052078898516198,2.3260931814152093,3.7203640549769923
5.4999999999999964,0.1,-0.35,0.2,0.37,0.0,6414.571146031547,0.0,5.417946066195078,6.190270969252006,20.575018601211944,1.216071597124523,2.60273969850906,3.51558394232761
5.599999999999996,0.1,-0.35,0.2,0.37,0.0,6413.401837857121,0.0,5.547674947131331,6.464087123378001,20.916629428734097,1.3781558851279576,2.8723327658148867,3.3177644734401515
5.699999999999996,0.1,-0.35,0.2,0.37,0.0,6412.232483922704,0.0,5.693504842042703,6.764485919212968,21.238781594517928,1.5380476394307885,3.134304971420435,3.126313378636252
5.799999999999995,0.1,-0.35,0.2,0.37,0.0,6411.063109410732,0.0,5.855204056268605,7.090681059925328,21.5420840196802,1.6955034447763166,3.3881875436371867,2.940679654637093
5.899999999999995,0.1,-0.35,0.2,0.37,0.0,6409.893725644769,0.0,6.03251797798106,7.441843753710353,21.82709267356761,1.8503069129770922,3.6335979038259203,2.760355096190262
5.999999999999995,0.1,-0.35,0.2,0.37,0.0,6408.724337717045,0.0,6.225171449065218,7.817110974534489,22.094314758535944,2.002262905258705,3.870233072970921,2.5848720224457153
6.099999999999994,0.1,-0.35,0.2,0.37,0.0,6407.554947917645,0.0,6.432870755470224,8.21559318684632,22.344212588000097,2.1511952096285367,4.097865135907398,2.4137996819745084
6.199999999999994,0.1,-0.35,0.2,0.37,0.0,6406.38555727649,0.0,6.655305468971188,8.636381647025564,22.57720708615281,2.2969456715647345,4.316337143792922,2.2467403911103374
6.299999999999994,0.1,-0.35,0.2,0.37,0.0,6405.216166256767,0.0,6.892150234670187,9.078555288259233,22.793680907247722,2.4393738796297364,4.525558820885224,2.083325828423026
6.399999999999993,0.1,-0.35,0.2,0.37,0.0,6404.0467750667885,0.0,7.143066536984292,9.54118715735933,22.993981198910532,2.5783570061910117,4.725501886007958,1.9232136328968314
6.499999999999993,0.1,-0.35,0.2,0.37,0.0,6402.877383800241,0.0,7.407704449687858,10.023350364290279,23.178422042001216,2.7137896293968056,4.916194995763887,1.766084336699346
6.5999999999999925,0.1,-0.27022289884594475,0.2,0.37,0.0,6401.707992499257,0.0,7.6857043640147715,10.524123510631602,23.34728659992082,2.845583465444226,5.09771839869973,1.611638616619137
6.699999999999992,0.1,-0.09370173728320541,0.2,0.37,0.0,6400.549413578943,0.0,7.976749685168796,11.041882349042679,23.501081476023767,2.97512455123629,5.24964708452698,1.4668213511497794
6.799999999999992,0.1,0.08165647463734571,0.2,0.37,0.0,6399.433665168356,0.0,8.280746168189498,11.57137972056935,23.64142637653553,3.1050174828140484,5.3221108555935075,1.3447292520967726
6.8999999999999915,0.1,0.2444084928781196,0.2,0.37,0.0,6398.40183357447,0.0,8.597756570897037,12.102333903050843,23.77075100702068,3.2349961954249147,5.274652746729533,1.2444824757967479
6.999999999999991,0.1,0.35,0.2,0.37,0.0,6397.403737041507,0.0,8.927630798880914,12.621992720396833,23.890474740721608,3.3615648885145855,5.096150443980963,1.1491330403142714
7.099999999999991,0.1,0.35,0.2,0.37,0.0,6396.31704018006,0.0,9.26983123586571,13.117879736764607,24.000114890996816,3.48101434244967,4.804790246678468,1.0402483741714013
7.19999999999999,0.1,0.35,0.2,0.37,0.0,6395.180935714668,0.0,9.623580385999253,13.580997436830565,24.097969286988523,3.592814436757589,4.452006750046713,0.9146704187285007
7.29999999999999,0.1,0.35,0.2,0.37,0.0,6394.025736950781,0.0,9.988196751171605,14.007724376528133,24.18274992603871,3.6986085124320747,4.081519883018834,0.7799097356682673
7.39999999999999,0.1,0.35,0.2,0.37,0.0,6392.862569905169,0.0,10.363142152521563,14.397315729033448,24.253819156892053,3.7995369754357142,3.7111092592265766,0.6410542796656079
7.499999999999989,0.1,0.35,0.2,0.37,0.0,6391.695945663413,0.0,10.74796427417272,14.750178987635552,24.31091105275497,3.8962168412581843,3.347598592182958,0.5006428535516089
7.599999999999989,0.1,0.35,-0.2,0.37,0.0,6390.5277922711475,0.0,11.142256199070061,15.067135212624311,24.353933506788316,3.9889731243796738,2.993107082166434,0.3597770481934856
7.699999999999989,0.1,0.35,-0.2,0.37,0.0,6389.435076991793,0.0,11.54203129028944,15.348922166765881,24.383365667428084,3.9739525900795445,2.6431590773285727,0.23162461649689617
7.799999999999988,0.1,0.35,-0.2,0.37,0.0,6388.341630630181,0.0,11.93298388944813,15.596054909469485,24.400245843703665,3.8318644763691996,2.301251339987043,0.10492743213638889
7.899999999999988,0.1,0.35,-0.2,0.37,0.0,6387.204149700447,0.0,12.306759123866225,15.80949643203658,24.404140969859476,3.638541686954448,1.9690914854888357,-0.0279522138749434
7.999999999999988,0.1,0.35,-0.2,0.37,0.0,6386.048646724545,0.0,12.660105768799403,15.990132360758626,24.394518852140816,3.426833361478378,1.6447959475607632,-0.16498386455738337
8.099999999999987,0.1,0.35,-0.2,0.37,0.0,6384.885407103927,0.0,12.991996066214938,16.13865407835183,24.371080095889432,3.210922985037579,1.3265287607169074,-0.30399222370609413
8.199999999999987,0.1,0.35,-0.2,0.37,0.0,6383.718763263309,0.0,13.302351668248582,16.255588318531572,24.333699298195004,2.9967509650449284,1.012822414840807,-0.4436602632881182
8.299999999999986,0.1,0.35,-0.2,0.37,0.0,6382.550603698539,0.0,13.591481451106015,16.341328768796863,24.28235113645783,2.7866235463919904,0.702460875366517,-0.5832446024786698
8.399999999999986,0.1,0.35,-0.2,0.37,0.0,6381.381765553048,0.0,13.85983411898723,16.396155310501815,24.217068083983136,2.58125387654408,0.39436942358325033,-0.7222972248166115
8.499999999999986,0.1,0.35,-0.2,0.37,0.0,6380.212622851759,0.0,14.107890395480846,16.42024452884077,24.137919386304272,2.380668125936612,0.08754853512353482,-0.8605129773363843
8.599999999999985,0.1,0.35,-0.2,0.37,0.0,6379.043343307448,0.0,14.336117173139554,16.413677109243064,24.04500093604266,2.184607247339072,-0.218850570056995,-0.9976558016344454
8.699999999999985,0.1,0.35,-0.2,0.37,0.0,6377.874002245508,0.0,14.544949070056312,16.376497595018098,23.938430284729236,1.992703928743234,-0.5245416612876387,-1.1335248566610667
8.799999999999985,0.1,0.35,-0.2,0.37,0.0,6376.704633522042,0.0,14.734781987349718,16.308822476700932,23.818343978477753,1.8045593057741078,-0.8286064476937824,-1.26793947173304
8.899999999999984,0.1,0.3407490039375045,-0.2,0.37,0.0,6375.535252359235,0.0,14.905971802810996,16.21085997252879,23.68489590988677,1.6197750716342145,-1.1301372212069158,-1.400732718196988
8.999999999999984,0.1,0.2530133480666783,-0.2,0.37,0.0,6374.36707263194,0.0,15.058829040400525,16.08299071337063,23.53828624794117,1.437789443330554,-1.4258569208069662,-1.530878626964732
9.099999999999984,0.1,0.15806601558238337,-0.2,0.37,0.0,6373.212539069089,0.0,15.193553911008204,15.92671358915553,23.37908800417135,1.2566270891928195,-1.6915238131402162,-1.6503194010021038
9.199999999999983,0.1,0.061175042335504914,-0.2,0.37,0.0,6372.090034142671,0.0,15.31012190839753,15.746654697545056,23.208814256998686,1.074507799032965,-1.8978668459903005,-1.7519719975907841
9.299999999999983,0.1,-0.03051005388544442,-0.2,0.37,0.0,6371.0147878993575,0.0,15.40841894910639,15.54960642629363,23.029246808762654,0.891276285131778,-2.0295219071877413,-1.836835112976635
9.399999999999983,0.1,-0.11201458207533171,-0.2,0.37,0.0,6369.998654813265,0.0,15.48836624648196,15.343392010098352,22.841814809950293,0.7076870968463179,-2.0809361275173663,-1.9104259631186025
9.499999999999982,0.1,-0.1800374626759347,-0.2,0.37,0.0,6369.02635750403,0.0,15.549980741051426,15.135978660621296,22.647297128932678,0.5248039129985619,-2.0544250699801463,-1.979745696597183
9.599999999999982,0.1,-0.23281098902206637,-0.2,0.37,0.0,6368.007330549104,0.0,15.593381183144803,14.934797637567355,22.445799669308126,0.343534934913136,-1.9580186350961175,-2.0509276330376975
9.699999999999982,0.1,-0.2698603885003641,-0.2,0.37,0.0,6366.942005863094,0.0,15.618757564723103,14.746281333508536,22.236917868071554,0.16436725227751173,-1.8033064156323761,-2.1279009981251686
9.799999999999981,0.1,-0.2917025097440852,-0.2,0.37,0.0,6365.843158523982,0.0,15.626323675828525,14.575605845566928,22.01998313667443,-0.012710279204472371,-1.6035293728721247,-2.2120216964416346
9.89999999999998,0.1,-0.2995362378156851,-0.2,0.51,0.0,6364.721801085414,0.0,15.616272738567446,14.426602825469555,21.794307876199433,-0.18801966951751142,-1.3721280012743446,-2.3024135478816588
9.99999999999998,0.1,-0.2949768091233936,-0.2,0.51,0.0,6363.157631240137,0.0,15.585508614765915,14.306262995838217,21.575362622894296,-0.42756963856794394,-1.030575728987736,-2.075231861154557
10.09999999999998,0.1,-0.2603615069628463,-0.2,0.51,0.0,6361.585176060465,0.0,15.530853002962107,14.22077835269321,21.378810299044417,-0.6652439753385,-0.6784084612701086,-1.856928276199386
10.19999999999998,0.1,-0.2138637534999227,-0.2,0.51,0.0,6360.017130308995,0.0,15.45249648321015,14.170227316620434,21.20392017138646,-0.901763623280741,-0.3362698374491824,-1.640569588822812
10.29999999999998,0.1,-0.15959031883611507,-0.2,0.51,0.0,6358.467302599556,0.0,15.350514854854394,14.152467552695363,21.05085331465432,-1.1378139020271083,-0.02577981208445789,-1.4195956305776674
10.399999999999979,0.1,-0.10246504766218996,0.2,0.51,0.0,6356.947510766273,0.0,15.224947147176252,14.163494849634013,20.92026645431962,-1.3734448939822543,0.2370512723931576,-1.1906391371166627
10.499999999999979,0.1,-0.046811187623844855,0.2,0.51,0.0,6355.581332954119,0.0,15.081090939389659,14.198047069087073,20.813723344371237,-1.4564938269752077,0.4436974055117968,-0.9348805033735625
10.599999999999978,0.1,0.004192660446739743,0.2,0.51,0.0,6354.263947107175,0.0,14.939694641414247,14.250053670118916,20.733489156375544,-1.3509693749193095,0.5846866862355742,-0.6703808615592507
10.699999999999978,0.1,0.04695236488041138,0.2,0.37,0.0,6352.933045666355,0.0,14.813566848922829,14.312778941868538,20.679467991593985,-1.1626439993687243,0.6585769697397075,-0.4109382261582342
10.799999999999978,0.1,0.07929349767113227,0.2,0.37,0.0,6351.983072016371,0.0,14.705411628216185,14.379423141707484,20.634366588800678,-0.9982976315088575,0.6669591283677893,-0.49485933103688895
10.899999999999977,0.1,0.0996303053516534,0.2,0.37,0.0,6351.011357873461,0.0,14.614272752108466,14.444937744849389,20.580592311772282,-0.8234371101515238,0.6374372202347899,-0.5809897332411793
10.999999999999977,0.1,0.11207001260478681,0.2,0.51,0.0,6350.010859666512,0.0,14.540844391512636,14.505957423882997,20.518102690217496,-0.6448042769828829,0.5786731288332896,-0.6691131272147253
11.099999999999977,0.1,0.117402704453897,0.2,0.51,0.0,6348.605926174626,0.0,14.488667975425626,14.558600712648893,20.46333759053076,-0.3979752780847143,0.4699296210904594,-0.42351225860479175
11.199999999999976,0.1,0.11039412375978191,0.2,0.37,0.0,6347.185198057716,0.0,14.461220209496025,14.599370470351284,20.43312591489723,-0.150982189813942,0.34311239152395717,-0.18115148754695728
11.299999999999976,0.1,0.09644621000315087,0.2,0.37,0.0,6346.150022932598,0.0,14.455119467486556,14.628816134814997,20.41046459694339,0.02831919742508597,0.24601926873478175,-0.27543377166331623
11.399999999999975,0.1,0.08527237149515551,0.2,0.37,0.0,6345.1170039850285,0.0,14.466924019494355,14.64866863934948,20.378223097479157,0.2077816096707689,0.15215107725204516,-0.3692455532796197
11.499999999999975,0.1,0.07205743446826364,0.2,0.37,0.0,6344.089700532086,0.0,14.496671322153905,14.659495683407112,20.33664885483825,0.38711073782298444,0.0658262684011499,-0.4620483626696366
11.599999999999975,0.1,0.05782404503422133,0.2,0.51,0.0,6343.069770901767,0.0,14.544330065104782,14.662144828330154,20.285853427200095,0.5659528791784815,-0.011091514545845841,-0.5536408854806529
11.699999999999974,0.1,0.04318224902327404,0.2,0.51,0.0,6341.6760513737645,0.0,14.613201331931126,14.656367961955052,20.24258262499766,0.8119044627137542,-0.10198072844282131,-0.3084179395821408
11.799999999999974,0.1,0.02338688365885029,0.2,0.51,0.0,6340.295875477775,0.0,14.706618242713517,14.642310575575108,20.224009330698888,1.05607954544424,-0.17622777729361114,-0.0629674642554719
11.899999999999974,0.1,0.004601405702307937,0.2,0.37,0.0,6338.931803036784,0.0,14.824338741315682,14.621764508093422,20.230012130286347,1.2978764789902781,-0.23106109076163492,0.18313953637212121
11.999999999999973,0.1,-0.012118155886168762,0.2,0.37,0.0,6337.95559113389,0.0,14.962728774218347,14.597318743696352,20.24397373495876,1.4688562305362658,-0.2549640271324273,0.09281292695893614
12.099999999999973,0.1,-0.02374355719150688,0.2,0.37,0.0,6336.993071362766,0.0,15.11806340687057,14.571282791233195,20.248753301131142,1.6373948280520179,-0.2631119431362979,0.0028021612311503966
12.199999999999973,0.1,-0.03266320708196509,0.2,0.37,0.0,6336.033075403232,0.0,15.290117163307153,14.545149367143255,20.244533530465976,1.8031909461575117,-0.25740358021947995,-0.08721329759427374
12.299999999999972,0.1,-0.03883889324378465,0.2,0.37,0.0,6335.063492481372,0.0,15.478602513837556,14.520166202927982,20.23130668569445,1.9659860778956735,-0.24055315931873572,-0.17734480613349715
12.399999999999972,0.1,-0.04246409504391228,0.2,0.37,0.0,6334.086430484821,0.0,15.683208064416736,14.497318652033668,20.209061208522236,2.1255605440826493,-0.21512323585792945,-0.267576926430013
12.499999999999972,0.1,-0.043775424602158886,0.2,0.51,0.0,6333.104053766332,0.0,15.903602186503498,14.477341185141718,20.177790831502772,2.281728475495804,-0.18355908739203847,-0.3578238121792539
12.599999999999971,0.1,-0.04305628563872667,0.2,0.51,0.0,6331.745367427477,0.0,16.142789535550843,14.461382953131125,20.154153629770477,2.5017905718215037,-0.1348012110991661,-0.11170238946967737
12.69999999999997,0.1,-0.03777301534311832,0.2,0.37,0.0,6330.384530569179,0.0,16.403745246669608,14.450453224727502,20.15526527203808,2.716365898404262,-0.08357987565106309,0.13388654843077966
12.79999999999997,0.1,-0.03058907220651208,0.2,0.37,0.0,6329.397924974123,0.0,16.6825247148976,14.443938712976276,20.16426112757752,2.857878843933173,-0.04723302803311271,0.042684277267883514
12.89999999999997,0.1,-0.025143765973265148,0.2,0.37,0.0,6328.414273154111,0.0,16.975224161168583,14.440896898114643,20.163974317983428,2.9954293742555684,-0.014379481350860526,-0.04839948767920722
12.99999999999997,0.1,-0.01942476479807218,0.2,0.37,0.0,6327.434557330305,0.0,17.281477279687877,14.44091121198354,20.15458588069288,3.128940998048773,0.013862885951659519,-0.13933951291384084
13.09999999999997,0.1,-0.013772283454276928,0.2,0.37,0.0,6326.458981465253,0.0,17.600877161086338,14.443510940094322,20.136113168504483,3.258356369391547,0.03728961775938666,-0.2300742773073608
13.199999999999969,0.1,-0.008359013221712442,0.2,0.51,0.0,6325.48769237243,0.0,17.93301201348613,14.448206134778319,20.108579721444492,3.3836348659948605,0.05576056805802433,-0.32054475171941016
13.299999999999969,0.1,-0.003350168650465798,0.2,0.51,0.0,6324.15481484129,0.0,18.28080876935707,14.454769899962853,20.08867169090943,3.5718604630361073,0.07442067089264501,-0.07433643521345087
13.399999999999968,0.1,0.0022197061681279336,0.2,0.37,0.0,6322.827695519437,0.0,18.647131720559816,14.462871536014202,20.09353572007776,3.7534659658409844,0.08651334284453066,0.17158359381473284
13.499999999999968,0.1,0.006906698652882615,0.2,0.37,0.0,6321.869080603893,0.0,19.02794292445817,14.471766001767788,20.1063126092219,3.861385783115129,0.09052403164946866,0.08060190480964323
13.599999999999968,0.1,0.010199286824874448,0.2,0.37,0.0,6320.912976356134,0.0,19.41930790776191,14.480826025744069,20.109825269330727,3.9652209266894296,0.0899134935342311,-0.01035370146909238
13.699999999999967,0.1,0.012613985915185439,0.2,0.37,0.0,6319.95391204676,0.0,19.82085344311279,14.489618481500111,20.1042402408242,4.065005942358949,0.08531912522058427,-0.10135146283283765
13.799999999999967,0.1,0.014156999864147934,0.2,0.37,0.0,6318.992051174509,0.0,20.23217740248129,14.497786826103065,20.08955533140826,4.160800508341678,0.07757016897490158,-0.19233829808391048
13.899999999999967,0.1,0.014894345103838429,-0.2,0.51,0.0,6318.028108413964,0.0,20.652884179233094,14.50505580465854,20.065775604730696,4.252675088774714,0.06746735151574614,-0.2832335605545361
13.999999999999966,0.1,0.014909095607540257,-0.2,0.51,0.0,6316.814967821544,0.0,21.08066163940269,14.511004679455032,20.050296468912446,4.255850403391183,0.05111771347126658,-0.019048636955212403
14.099999999999966,0.1,0.01330485294166241,-0.2,0.37,0.0,6315.600824288502,0.0,21.498068829043888,14.515242445735659,20.06176898798134,4.072895778016608,0.033524865805191886,0.2468923743094663
14.199999999999966,0.1,0.010972857967022843,-0.2,0.37,0.0,6314.67127263587,0.0,21.89512385620157,14.51795599196033,20.08252166381134,3.8633199495585826,0.020903442801025757,0.1638071694908658
14.299999999999965,0.1,0.00920836630909744,-0.2,0.37,0.0,6313.72213671278,0.0,22.270112701785717,14.519456876545117,20.094561455377303,3.634914628351919,0.009360982086837388,0.07647044973300281
14.399999999999965,0.1,0.007320121850000322,-0.2,0.37,0.0,6312.765361426101,0.0,22.621989362970535,14.519876673607024,20.097743790536224,3.4026638098405138,-7.071437945253104E-4,-0.01308293050649675
14.499999999999964,0.1,0.0054240398510617665,-0.2,0.37,0.0,6311.806002358377,0.0,22.950728293547485,14.519366791953768,20.091909684265875,3.172796635588736,-0.009216178528523437,-0.10371707016734455
14.599999999999964,0.1,0.003579466041350385,-0.2,0.51,0.0,6310.846312928283,0.0,23.256707656800575,14.518086996316526,20.076986118583918,2.9476916041876415,-0.016097437711769032,-0.19479353840162422
14.699999999999964,0.1,0.0018448714262735964,-0.2,0.51,0.0,6309.524413182984,0.0,23.537120648393817,14.51609820300407,20.06960050401518,2.6611002879779937,-0.023313704075994326,0.050362151769009475
14.799999999999963,0.1,-1.552439740592805E-4,-0.2,0.37,0.0,6308.203994623807,0.0,23.78918882533613,14.513498460457948,20.0868763581847,2.3813899071751443,-0.02830645592435479,0.2950501318817698
14.899999999999963,0.1,-0.0018817222566456407,0.2,0.37,0.0,6307.247348688676,0.0,24.016954205906174,14.510554073452186,20.11194423488921,2.1753674397064717,-0.03028001672112619,0.20297118597391273
14.999999999999963,0.1,-0.003100862777613265,0.2,0.37,0.0,6306.37737609212,0.0,24.22820284667296,14.507495656692909,20.128171974198914,2.0844963990344727,-0.03061145551144808,0.12451224592456171
15.099999999999962,0.1,-0.004023507228275229,0.2,0.37,0.0,6305.506787551615,0.0,24.43828316066313,14.504479761141145,20.136834239209374,2.1319442833556903,-0.029479173312907298,0.04762149720876346
15.199999999999962,0.1,-0.00464150154306095,0.2,0.37,0.0,6304.586348256952,0.0,24.656505252231245,14.501637882127891,20.137474242302858,2.2387975614214217,-0.027181249136969038,-0.03579647686312465
15.299999999999962,0.1,-0.004977642831584247,0.2,0.37,0.0,6303.644598286679,0.0,24.886833527525233,14.499072270523618,20.129531509461444,2.3702485207450743,-0.024001017826678885,-0.12358541326199576
15.399999999999961,0.1,-0.005059967818722824,0.2,0.37,0.0,6302.693366265566,0.0,25.130842108290935,14.496857726834872,20.112686041112283,2.510682915291188,-0.02020410229273752,-0.21356524138319274
15.499999999999961,0.1,-0.004920656944783421,0.2,0.51,0.0,6301.737848645734,0.0,25.38902934366697,14.49504339051521,20.08678838218953,2.653038755193939,-0.016037722866167933,-0.3044774529454373
15.59999999999996,0.1,-0.004595395228974706,0.2,0.51,0.0,6300.418170853662,0.0,25.66470711901608,14.493735290393273,20.06842266688086,2.860577732860388,-0.010096916321752584,-0.0596457669371812
15.69999999999996,0.1,-0.003773501954234072,0.2,0.37,0.0,6299.097468166997,0.0,25.96096589098386,14.49302046042854,20.07467089821304,3.0637388684402507,-0.004232622622085737,0.18452890722934412
15.79999999999996,0.1,-0.002800795604426141,0.2,0.37,0.0,6298.139240732277,0.0,26.273942581185246,14.492798659145063,20.088672240294752,3.194481248722356,-2.9952366062240406E-4,0.09213847308012872
15.89999999999996,0.1,-0.0020762801715069525,0.2,0.37,0.0,6297.181376817384,0.0,26.59976728648981,14.492941803435805,20.093266228710995,3.3213329432033962,0.0030446707892980967,-2.661606133029775E-4
15.99999999999996,0.1,-0.0013673608801149611,0.2,0.37,0.0,6296.224039218916,0.0,26.938075241692747,14.493385522799848,20.088617151312892,3.444129053884943,0.005716445977956671,-0.09272012182263917
16.09999999999996,0.1,-7.087644204512764E-4,0.2,0.51,0.0,6295.26724991312,0.0,27.288456971971417,14.494063668214308,20.07472282889679,3.562801677970885,0.007736190295018097,-0.18515538165114764
16.19999999999996,0.1,-1.1493484099025738E-4,0.2,0.51,0.0,6293.949181309161,0.0,27.65383190663774,14.494940230389448,20.068220955219356,3.7442408300015813,0.009657377335040816,0.05842866706843514
16.29999999999996,0.1,5.147399760535127E-4,0.2,0.37,0.0,6292.631823870375,0.0,28.037050607819534,14.495968330420903,20.086230399275156,3.918992294779067,0.010771372087129076,0.3016664588301325
16.399999999999963,0.1,0.001025406935278544,0.2,0.37,0.0,6291.6765941905915,0.0,28.434079159541426,14.497062617358429,20.111908498791074,4.0202233380895205,0.011016032330956545,0.20856893597137222
16.499999999999964,0.1,0.0013807393265514115,0.2,0.37,0.0,6290.72132937472,0.0,28.8409975019077,14.498154328000503,20.12811671716119,4.117468954177768,0.010732367825969645,0.11561088502947439
16.599999999999966,0.1,0.0016296854053346973,0.2,0.37,0.0,6289.7656671291725,0.0,29.257443148310898,14.499194582200971,20.135032244551567,4.21078139359333,0.010004632311120941,0.022700414977781507
16.699999999999967,0.1,0.0017754094784961036,0.2,0.37,0.0,6288.809697584694,0.0,29.683026443236034,14.500144039553495,20.132655743879447,4.300235292172768,0.008933239733593043,-0.07023648710320685
16.79999999999997,0.1,0.0018269790216972899,-0.2,0.37,0.0,6287.853506843609,0.0,30.11736558283509,14.500973175460613,20.120985128698155,4.385912833461119,0.007614394415278613,-0.1631675588514428
16.89999999999997,0.1,0.0017953680120274362,-0.2,0.51,0.0,6286.98254622892,0.0,30.55628323648682,14.501660979866557,20.10055429011514,4.358132838239761,0.006116667016222365,-0.24251480008790616
16.99999999999997,0.1,0.001688407765880433,-0.2,0.51,0.0,6285.782038447476,0.0,30.98371482896048,14.502164796446953,20.089394090948016,4.171133414936833,0.003947771488466162,0.02113536948743495
17.099999999999973,0.1,0.0013956973028401655,-0.2,0.37,0.0,6284.514243313877,0.0,31.388117352774447,14.502451627625536,20.10429606992539,3.909497417373098,0.001799913846881638,0.2754899149137427
17.199999999999974,0.1,0.001046438504526461,-0.2,0.37,0.0,6283.574039455458,0.0,31.76762556045634,14.502557656546504,20.127571709970717,3.679707623356252,3.550430545610704E-4,0.18614231004569262
17.299999999999976,0.1,7.871524439332642E-4,-0.2,0.37,0.0,6282.625087387323,0.0,32.12391932372057,14.502529329332349,20.14162462511946,3.4462409479309,-8.794473450409476E-4,0.094671522555376
17.399999999999977,0.1,5.323227440495168E-4,-0.2,0.37,0.0,6281.672392258684,0.0,32.45696166552501,14.50238965880673,20.14647252613375,3.2153122960359393,-0.0018734784991213203,0.0021650067196574835
17.49999999999998,0.1,2.944087660598965E-4,-0.2,0.37,0.0,6280.718138007743,0.0,32.76714524950793,14.502162299974719,20.142040549042246,2.989282313833988,-0.0026342001993459293,-0.09086193230220267
17.59999999999998,0.1,7.860395305215153E-5,-0.2,0.37,0.0,6279.763292135666,0.0,33.055003050918685,14.501870196389993,20.12829379068742,2.768832770576656,-0.003170245055839453,-0.18408612085737242
17.69999999999998,0.1,-1.1039402196998246E-4,-0.2,0.51,0.0,6278.808279126584,0.0,33.32109503709959,14.501535177875903,20.105223785066027,2.5539264413970595,-0.003495195648986554,-0.2772986208614321
17.799999999999983,0.1,-2.6918932454448203E-4,-0.2,0.51,0.0,6277.623558996279,0.0,33.53971439822232,14.501211168375441,20.089917828702642,2.3044391270393847,-0.0036692693491080673,-0.05918426232348571
17.899999999999984,0.1,-3.9472672469807236E-4,0.2,0.37,0.0,6276.307216894679,0.0,33.7565422502999,14.500844341630984,20.096102284926555,2.0331055671461606,-0.0036279341118792842,0.182822902650105
17.999999999999986,0.1,-4.891711657003953E-4,0.2,0.37,0.0,6275.437458814545,0.0,33.953685286673775,14.500489497487091,20.110386788660247,1.9452208075442816,-0.003445193630590171,0.1024346207677075
18.099999999999987,0.1,-5.519794297324188E-4,0.2,0.37,0.0,6274.5676200685275,0.0,34.14997104988445,14.500159305095242,20.116744375986254,1.9953016403548198,-0.0031404045304985616,0.023605588845029217
18.19999999999999,0.1,-5.834754794320824E-4,0.2,0.37,0.0,6273.648879894273,0.0,34.35465729471722,14.499864346694347,20.11488593598005,2.10472578799006,-0.002745619548273374,-0.0617461144854258
18.29999999999999,0.1,-5.871068352376126E-4,0.2,0.37,0.0,6272.7095562607465,0.0,34.57170891579047,14.499612175520562,20.104252819352894,2.2388013842730943,-0.0022894053652224135,-0.15143754066419518
18.39999999999999,0.1,-5.664719272869901E-4,0.2,0.51,0.0,6271.7612668777565,0.0,34.802707930694325,14.499407590912996,20.08452845274299,2.381956544082953,-0.001798279066529092,-0.24328513912777958
18.499999999999993,0.1,-5.255303576668073E-4,0.2,0.51,0.0,6270.448697741334,0.0,35.051409461678375,14.499262245517626,20.072186541536013,2.5926594147969575,-0.0011066894439708097,-4.2892804575771215E-4
18.599999999999994,0.1,-4.2790914385897776E-4,0.2,0.37,0.0,6269.133706153464,0.0,35.321136085124614,14.49918563667785,20.08424428857945,2.8012859442833182,-4.3022982642990386E-4,0.24144039321725244
18.699999999999996,0.1,-3.1406769548779806E-4,0.2,0.37,0.0,6268.178936637386,0.0,35.60820768287221,14.49916570408964,20.103844167219837,2.9389264907345494,1.997086842195723E-5,0.14720056857604208
18.799999999999997,0.1,-2.296086812165314E-4,0.2,0.37,0.0,6267.223874337074,0.0,35.90883907682923,14.499187385629057,20.113851641405898,3.073068548157961,3.997268925740009E-4,0.05294378884992361
18.9,0.1,-1.4758664534931414E-4,0.2,0.37,0.0,6266.268722973515,0.0,36.22269413330014,14.499243051234535,20.11443117324056,3.203359996172029,7.003048232716879E-4,-0.041365315886981606
19.0,0.1,-7.188468967594133E-5,0.2,0.37,0.0,6265.313567822131,0.0,36.54937833077883,14.499324946718373,20.105577315995447,3.3296317248210303,9.247845717552985E-4,-0.1357099831869809
19.1,0.1,-4.058004504588116E-6,0.2,0.51,0.0,6264.358445242907,0.0,36.888485069200094,14.49942562821518,20.087291145201103,3.451801699376547,0.0010767660780206174,-0.22999524348259862
19.200000000000003,0.1,5.452911585449106E-5,0.2,0.51,0.0,6263.041988025535,0.0,37.24292923454467,14.499539878175563,20.076176180472622,3.6366374710627114,0.0011934116682052328,0.010982416949825737
19.300000000000004,0.1,1.0984822279865586E-4,0.2,0.37,0.0,6261.725596880209,0.0,37.615560308727915,14.499661539735838,20.089311290502902,3.8148526031708023,0.0012262232559868017,0.2516466473041152
19.400000000000006,0.1,1.5047577723198186E-4,0.2,0.37,0.0,6260.770558447969,0.0,38.00235615511634,14.499783054003798,20.109897192577858,3.919703895758175,0.0011950176798020751,0.1567439342496027
19.500000000000007,0.1,1.7825865702378343E-4,0.2,0.37,0.0,6259.815475986392,0.0,38.39940187229684,14.499898984166428,20.12083073994884,4.020528065805632,0.00111614551129851,0.06193450289045664
19.60000000000001,0.1,1.949446688596278E-4,0.2,0.37,0.0,6258.860359161348,0.0,38.806330300660356,14.50000505312442,20.122284071976964,4.117368624694581,9.995874441503599E-4,-0.032874586227206945
19.70000000000001,0.1,2.0133236366773612E-4,0.2,0.37,0.0,6257.905217498139,0.0,39.22274632469905,14.500098008942047,20.11425501673678,4.21029203816724,8.55613558723564E-4,-0.12770369747090535
19.80000000000001,0.1,1.9856521551775807E-4,-0.2,0.51,0.0,6256.950059928853,0.0,39.6482619105976,14.500175605123914,20.096745366517332,4.299373257182197,6.94031722680379E-4,-0.2224712160498703
19.900000000000013,0.1,1.8797577923203063E-4,-0.2,0.51,0.0,6255.7511775783605,0.0,40.080580983514594,14.500233232948375,20.087078207523206,4.300198766618624,4.560342259617089E-4,0.03642910606705724
20.000000000000014,0.1,1.5651207073733107E-4,-0.2,0.37,0.0,6254.55239354029,0.0,40.502346044197296,14.500266843013808,20.103835477185896,4.115814929669009,2.1722599279955368E-4,0.2970958408895898
20.100000000000016,0.1,1.1816124242614273E-4,-0.2,0.37,0.0,6253.633868478094,0.0,40.90363330427534,14.50028032187603,20.129414295698012,3.9050947665607185,5.610237448219306E-5,0.21015274471417686
20.200000000000017,0.1,8.971060018480713E-5,-0.2,0.37,0.0,6252.694831977979,0.0,41.282753079141735,14.500278795291573,20.145898088280394,3.6757933131925116,-8.20149941236694E-5,0.11901177771271135
20.30000000000002,0.1,6.165968281565566E-5,-0.2,0.37,0.0,6251.7468830895305,0.0,41.63868040385484,14.500264783421692,20.15314583129388,3.4428249305197203,-1.9378892672604507E-4,0.025688763665108076
20.40000000000002,0.1,3.538157272842813E-5,-0.2,0.37,0.0,6250.794999338661,0.0,41.97140554325826,14.50024087763104,20.151000537473383,3.212381586590387,-2.799957735194656E-4,-0.06871957307084758
20.50000000000002,0.1,1.1446581987205422E-5,-0.2,0.37,0.0,6249.841370165694,0.0,42.281319633919395,14.500209594381392,20.139386318762824,2.98682024377887,-3.4153284752250836E-4,-0.1636103687097331
20.600000000000023,0.1,-9.62014271473923E-6,-0.2,0.51,0.0,6248.886969427727,0.0,42.56895395769981,14.500173333994171,20.118274461004678,2.766822508204304,-3.798218465029271E-4,-0.2586273220640168
20.700000000000024,0.1,-2.7430850932652906E-5,-0.2,0.51,0.0,6247.570979923574,0.0,42.83154202288556,14.500133947715375,20.10423870612304,2.4854538209236927,-4.0320674408798554E-4,-0.01883120484582692
20.800000000000026,0.1,-4.3135988512720165E-5,-0.2,0.37,0.0,6246.254784994505,0.0,43.06629753236812,14.500093553924883,20.114330044624168,2.210722930674757,-4.004673706613096E-4,0.2205908479849484
20.900000000000027,0.1,-5.3898375165154115E-5,0.2,0.37,0.0,6245.29981418932,0.0,43.27721810680582,14.50005430527985,20.13176622021883,2.0090754581354675,-3.81864966009664E-4,0.12480136818019849
21.00000000000003,0.1,-6.116751484397699E-5,0.2,0.37,0.0,6244.43018794085,0.0,43.47202603233197,14.50001765125999,20.13998704124671,1.9217938894859123,-3.4898963135284394E-4,0.04252326584405054
21.10000000000003,0.1,-6.485557347346726E-5,0.2,0.37,0.0,6243.560584010745,0.0,43.665985753389975,14.4999848536711,20.140256719423252,1.972176376055938,-3.054465756678424E-4,-0.03824520215590347
21.20000000000003,0.1,-6.533028722568842E-5,0.2,0.37,0.0,6242.642152212359,0.0,43.86836923761454,14.499956789222882,20.132116875722854,2.08178505989721,-2.5489094960122835E-4,-0.12551237982858765
21.300000000000033,0.1,-6.307720751334695E-5,0.2,0.37,0.0,6241.703188126184,0.0,44.083134403674165,14.499934002517014,20.115014143523318,2.216011217841944,-2.0039040231444624E-4,-0.21705203163832798
21.400000000000034,0.1,-5.85573756990227E-5,0.2,0.51,0.0,6240.755288349089,0.0,44.31186193117404,14.499916748845646,20.08863875236197,2.359319001612449,-1.4467398253446815E-4,-0.3106793942351237
21.500000000000036,0.1,-5.2245119726085876E-5,0.2,0.51,0.0,6239.443270784366,0.0,44.55830118919545,14.499906054914774,20.069431498400206,2.570056311905994,-6.951332744038878E-5,-0.0703768896049195
21.600000000000037,0.1,-4.0207289351289175E-5,0.2,0.51,0.0,6238.128821257514,0.0,44.825770821511526,14.499902686790179,20.07436346650522,2.7787560913900533,1.18783355497446E-6,0.16889821245223557
21.70000000000004,0.1,-2.7010132038879983E-5,0.2,0.37,0.0,6236.8132872087945,0.0,45.11391124130131,14.499906011230578,20.10318420373756,2.983214437255932,6.347341902832259E-5,0.4073468215060156
21.80000000000004,0.1,-1.362217163237545E-5,0.2,0.37,0.0,6235.858532360294,0.0,45.41891892477372,14.499914263980935,20.139243646813227,3.115636957553494,9.972550200803816E-5,0.31053724521777676
21.90000000000004,0.1,-4.060984936507582E-6,0.2,0.37,0.0,6234.903627014173,0.0,45.73694518209622,14.499925618225955,20.165465628443734,3.2442155699195103,1.2547978736547345E-4,0.21393038753478924
22.000000000000043,0.1,4.269060740508271E-6,0.2,0.37,0.0,6233.948658911725,0.0,46.06762938931606,14.499939026328075,20.182033921539524,3.3687773467773323,1.4104551205588832E-4,0.11745032081594159
22.100000000000044,0.1,1.1136474272229945E-5,0.2,0.37,0.0,6232.993666458038,0.0,46.410565530925446,14.499953536012283,20.18895717370406,3.489246094127155,1.477197088705588E-4,0.021014975751021722
22.200000000000045,0.1,1.6534025213378404E-5,0.2,0.37,0.0,6232.038663684174,0.0,46.765342548833196,14.499968319846129,20.186235769694203,3.605592748426921,1.4674444648291388E-4,-0.07544886563571929
22.300000000000047,0.1,2.047844621273234E-5,0.2,0.37,0.0,6231.083649542967,0.0,47.13154802187411,14.499982676361148,20.173867783659688,3.7178170251689,1.393929890407424E-4,-0.17190089185378526
22.40000000000005,0.1,2.302797892949947E-5,0.2,0.37,0.0,6230.12862788841,0.0,47.50877054793713,14.499996032112897,20.15185907342654,3.825938545972318,1.2694905799885044E-4,-0.26824746942779953
22.50000000000005,0.1,2.4278803210838014E-5,0.2,0.51,0.0,6229.173601477265,0.0,47.89660148054128,14.500007941531464,20.12022483806855,3.929992226692166,1.1068136762635147E-4,-0.36439568516787674
22.60000000000005,0.1,2.435990233531331E-5,0.2,0.51,0.0,6227.857209681201,0.0,48.297950503606565,14.500017736974286,20.095534058121284,4.096515839937997,8.467387246863637E-5,-0.12619739738402297
22.700000000000053,0.1,2.1901127293738283E-5,0.2,0.51,0.0,6226.540815714755,0.0,48.7156493529813,14.50002481507874,20.094804153319295,4.256322571435443,5.6662552523368204E-5,0.11156194088861557
22.800000000000054,0.1,1.8280732551958602E-5,-0.2,0.37,0.0,6225.224421588222,0.0,49.14899455918089,14.500029071922249,20.117833631674664,4.4094496430906105,2.866021824971916E-5,0.34891558024349234
22.900000000000055,0.1,1.3872181879692407E-5,-0.2,0.37,0.0,6224.354781791192,0.0,49.59022514486799,14.500030965105267,20.148545903555267,4.380351019098094,9.585441065901134E-6,0.26492721956636844
23.000000000000057,0.1,1.058731768806772E-5,-0.2,0.37,0.0,6223.485216257899,0.0,50.02085637664057,14.500031075422449,20.17097828753131,4.218539022303696,-6.817935463843143E-6,0.182635881071809
23.10000000000006,0.1,7.3375311928458565E-6,-0.2,0.37,0.0,6222.566823729092,0.0,50.432241213423445,14.500029706121305,20.18485625917943,4.003999032632617,-2.003753192955599E-5,0.09397292285659478
23.20000000000006,0.1,4.310207579499947E-6,-0.2,0.37,0.0,6221.6279018741425,0.0,50.82107864604189,14.500027167470115,20.189632026978874,3.7713090447107147,-3.022650285917189E-5,0.0010142544838084855
23.30000000000006,0.1,1.5615910604580676E-6,-0.2,0.37,0.0,6220.680046613223,0.0,51.18640362219315,14.500023755344392,20.184985551572353,3.5353211463811105,-3.753596133263829E-5,-0.09420150675131736
23.400000000000063,0.1,-8.556958367595131E-7,-0.2,0.37,0.0,6219.728235992441,0.0,51.528241154905054,14.500019748459009,20.17075849270921,3.3021859046565627,-4.21577640082159E-5,-0.19044504028820175
23.500000000000064,0.1,-2.90198427925212E-6,-0.2,0.51,0.0,6218.774660041854,0.0,51.847013422966725,14.500015404205255,20.146884893195104,3.07422703197076,-4.43270437417734E-5,-0.2870519261442821
23.600000000000065,0.1,-4.552231276852507E-6,-0.2,0.51,0.0,6217.459181389394,0.0,52.13997559004104,14.500010948033816,20.129888563730074,2.7856256910072204,-4.4318669439514786E-5,-0.04965487514810893
23.700000000000067,0.1,-5.798284419309628E-6,0.2,0.37,0.0,6216.143210539181,0.0,52.404412965159445,14.500006624757876,20.13677281483822,2.5043152719364095,-4.174158072121134E-5,0.18727626376016407
23.800000000000068,0.1,-6.493383938823832E-6,0.2,0.37,0.0,6215.273713018899,0.0,52.64818764571471,14.500002611241499,20.151313318987985,2.4065825855599154,-3.828936819173964E-5,0.10309702728121674
23.90000000000007,0.1,-6.926726018744239E-6,0.2,0.37,0.0,6214.404088393939,0.0,52.89010186008317,14.499999005092777,20.157546393612716,2.446439175652814,-3.367363731031436E-5,0.020457405268314674
24.00000000000007,0.1,-7.013301484579281E-6,0.2,0.37,0.0,6213.485674221785,0.0,53.1393733764693,14.49999590094367,20.155183793289506,2.5452232962471255,-2.830513951713747E-5,-0.06867599586318207
24.100000000000072,0.1,-6.808763675805195E-6,0.2,0.37,0.0,6212.546743950937,0.0,53.399926032261206,14.49999335829904,20.14366981089145,2.668259763638464,-2.24952575242054E-5,-0.16212039787414192
24.200000000000074,0.1,-6.358727773606123E-6,0.2,0.51,0.0,6211.5988844553385,0.0,53.67330386818831,14.499991406797436,20.122690605874485,2.800017890409827,-1.6528906392122234E-5,-0.2576945335064714
24.300000000000075,0.1,-5.711877996272975E-6,0.2,0.51,0.0,6210.28692438799,0.0,53.963210777018375,14.499990159648517,20.1086515334252,2.998609870420483,-8.440044248175538E-6,-0.019982125363283053
24.400000000000077,0.1,-4.4433072648730245E-6,0.2,0.37,0.0,6208.972530227685,0.0,54.27290582226818,14.499989703025538,20.11849662284443,3.194626736532511,-7.888905920897973E-7,0.21675066421859285
24.500000000000078,0.1,-3.04093096789567E-6,0.2,0.37,0.0,6208.018158907526,0.0,54.59868172441753,14.499989878190888,20.135442211301008,3.3196543348222844,4.133986899168093E-6,0.11881523504370761
24.60000000000008,0.1,-2.0073091714568423E-6,0.2,0.37,0.0,6207.063432834048,0.0,54.93675097132339,14.499990499847451,20.14242547383501,3.4410851701844485,8.120294034344704E-6,0.020840536346498496
24.70000000000008,0.1,-1.0359839068734872E-6,0.2,0.37,0.0,6206.108547840255,0.0,55.28676987171135,14.499991469396328,20.139607872109615,3.5586159553233037,1.1104790021843604E-5,-0.07720266815247419
24.800000000000082,0.1,-1.676110238867399E-7,0.2,0.37,0.0,6205.153591830763,0.0,55.648341352184715,14.499992690114532,20.126984824675283,3.6721249251592574,1.315427002085845E-5,-0.17524958634215798
24.900000000000084,0.1,5.840860729952713E-7,0.2,0.51,0.0,6204.198604286091,0.0,56.02106084464436,14.499994071908368,20.104561368245196,3.7815743405268933,1.433969199293275E-5,-0.27319332378280975
25.000000000000085,0.1,1.2080727416820917E-6,0.2,0.51,0.0,6202.882251038347,0.0,56.40783203685027,14.499995542477787,20.088873252228343,3.9533856945963093,1.4900913186707622E-5,-0.037314644683459214
25.100000000000087,0.1,1.7320764177924525E-6,0.2,0.37,0.0,6201.565888934197,0.0,56.811483924827655,14.499997021245715,20.09692243116339,4.118516444222075,1.452498411706054E-5,0.19824590915775941
25.200000000000088,0.1,2.070945623609265E-6,0.2,0.37,0.0,6200.610877682388,0.0,57.22800918569683,14.49999843555503,20.11198574580723,4.210668899455674,1.367109835170914E-5,0.09969837194986322
25.30000000000009,0.1,2.2961750787377027E-6,0.2,0.37,0.0,6199.655864690458,0.0,57.653525965868006,14.499999740193168,20.11703038616163,4.299025704145224,1.2352306423276865E-5,0.0011927526584740063
25.40000000000009,0.1,2.3977153716819135E-6,0.2,0.37,0.0,6198.700850796147,0.0,58.08769128340251,14.500000894864957,20.11222311944082,4.383654062603647,1.0691385720962682E-5,-0.09734016592944075
25.500000000000092,0.1,2.3888393322214164E-6,-0.2,0.37,0.0,6197.745836428238,0.0,58.53013663546579,14.500001871034181,20.097563555667428,4.464641814528108,8.801373310978932E-6,-0.19583668446976765
25.600000000000094,0.1,2.2841642328540844E-6,-0.2,0.51,0.0,6196.876211978908,0.0,58.97672322387124,14.500002650025882,20.073585820887217,4.4330335285341045,6.75882624648046E-6,-0.2807949638872547
25.700000000000095,0.1,2.09377249633708E-6,-0.2,0.51,0.0,6195.677639350604,0.0,59.41150787956098,14.500003183230394,20.05820896722107,4.243467396743357,3.905180603322774E-6,-0.024946799485078136
25.800000000000097,0.1,1.6723406309688355E-6,-0.2,0.37,0.0,6194.411760828006,0.0,59.823049787676744,14.500003435172651,20.068114380791826,3.980053621533065,1.1607561100894255E-6,0.22167190203379103
25.900000000000098,0.1,1.1939995643602493E-6,-0.2,0.37,0.0,6193.472846504666,0.0,60.209527263314,14.50000345885911,20.085731575416336,3.7485903097278324,-6.352622912586899E-7,0.12680835414103805
26.0000000000001,0.1,8.414280926152189E-7,-0.2,0.37,0.0,6192.52499646965,0.0,60.572638133118005,14.500003317979804,20.093573975735225,3.5137444667598507,-2.1225230646209465E-6,0.02978783504505097
26.1000000000001,0.1,5.045297321387842E-7,-0.2,0.37,0.0,6191.5731889645385,0.0,60.91237183290783,14.500003045392782,20.091654125161615,3.2816726331589092,-3.2732406588338003E-6,-0.06830927488937333
26.200000000000102,0.1,1.9806184730440452E-7,-0.2,0.37,0.0,6190.619614212805,0.0,61.229142764207815,14.50000267376687,20.079896661361904,3.0547010287203356,-4.106152248507777E-6,-0.1668843762221179
26.300000000000104,0.1,-7.257572606472304E-8,-0.2,0.51,0.0,6189.66524732444,0.0,61.52350286639567,14.500002233940757,20.058273582435156,2.833489032142845,-4.64106841530634E-6,-0.2655754601958634
26.400000000000105,0.1,-3.0271027115056854E-7,-0.2,0.51,0.0,6188.34927846488,0.0,61.79271889758289,14.500001748775848,20.043290515098416,2.551384968634127,-5.002302621945129E-6,-0.030845862554610505
26.500000000000107,0.1,-5.108032870365226E-7,0.2,0.37,0.0,6187.03308939989,0.0,62.0340391562994,14.500001244525691,20.051926867620157,2.2761197643182065,-5.02878870349801E-6,0.20351215694933605
26.600000000000108,0.1,-6.572905471102163E-7,0.2,0.37,0.0,6186.163524204932,0.0,62.25526401246253,14.50000074980997,20.067996933955218,2.1836682155394653,-4.829933107576383E-6,0.11746141657881425
26.70000000000011,0.1,-7.560398297592661E-7,0.2,0.37,0.0,6185.293941737139,0.0,62.475133269828696,14.500000284550623,20.075573812731122,2.228427114647503,-4.447507901051032E-6,0.032973811098668676
26.80000000000011,0.1,-8.098274057522287E-7,0.2,0.37,0.0,6184.375547715935,0.0,62.702845968735325,14.49999986479484,20.074371382600166,2.332065743829739,-3.927356457335232E-6,-0.057988161497897324
26.900000000000112,0.1,-8.233287365036396E-7,0.2,0.37,0.0,6183.436628908897,0.0,62.942328724734246,14.499999502200403,20.063834764228737,2.4600385113419874,-3.3111628055289837E-6,-0.15326128653002694
27.000000000000114,0.1,-8.016164482935019E-7,0.2,0.51,0.0,6182.4887771633075,0.0,63.19513634616704,14.49999920442578,20.043649954493215,2.59685703382657,-2.637300477114396E-6,-0.2506659787348984
27.100000000000115,0.1,-7.502208769770225E-7,0.2,0.51,0.0,6181.1768253413875,0.0,63.46498096801556,14.499998988475461,20.030188571806498,2.8005671025974035,-1.6773101539111928E-6,-0.015460476048967223
27.200000000000117,0.1,-6.186889016452568E-7,0.2,0.37,0.0,6179.862438029355,0.0,63.75513771372976,14.499998868407458,20.04036085215214,3.001941598955013,-7.292001059391417E-7,0.21877212755707365
27.300000000000118,0.1,-4.6268593304193066E-7,0.2,0.37,0.0,6178.908070829934,0.0,64.06192647420896,14.499998828104161,20.05741753171241,3.1326082465069285,-9.214622970294689E-8,0.11902321465497634
27.40000000000012,0.1,-3.465600808706965E-7,0.2,0.37,0.0,6177.953347971861,0.0,64.38157529478471,14.49999884700434,20.06433103972548,3.259729749298671,4.51446840037431E-7,0.019237581507018896
27.50000000000012,0.1,-2.3254941674676733E-7,0.2,0.37,0.0,6176.998465322692,0.0,64.71374453735251,14.499998914887376,20.061262607606732,3.3829815411645368,8.88218146943912E-7,-0.08061586376969214
27.600000000000122,0.1,-1.2618790526273955E-7,0.2,0.51,0.0,6176.043510880682,0.0,65.0580390894867,14.4999990212404,20.048207910704924,3.5022205577476124,1.2212887553980236E-6,-0.18046825669798663
27.700000000000124,0.1,-2.979493680566869E-8,0.2,0.51,0.0,6174.727177892489,0.0,65.41735978891766,14.499999160541806,20.041665199835183,3.6837534789761044,1.5427952611867332E-6,0.052897348586378554
27.800000000000125,0.1,7.351075802251202E-8,0.2,0.37,0.0,6173.410824983,0.0,65.79453939932884,14.499999325506103,20.05861113867137,3.8587160710774944,1.7351247169775419E-6,0.28593455338273355
27.900000000000126,0.1,1.5816665218532734E-7,0.2,0.37,0.0,6172.455817396656,0.0,66.18558233690486,14.499999502254866,20.082346204867648,3.9607979261330164,1.7839202668818308E-6,0.18546773077233814
28.000000000000128,0.1,2.174154158568559E-7,0.2,0.37,0.0,6171.500806879607,0.0,66.58660181024537,14.499999679496888,20.09587553744076,4.058921007503312,1.7469292232678955E-6,0.08513181819664599
28.10000000000013,0.1,2.596449732795458E-7,0.2,0.37,0.0,6170.54579497589,0.0,66.99723742121198,14.49999984926746,20.09937341277264,4.1531317009294995,1.6373112341631217E-6,-0.015178375817198077
28.20000000000013,0.1,2.8525713581768753E-7,0.2,0.37,0.0,6169.590782426375,0.0,67.41710132606542,14.500000005109165,20.092838818911684,4.243499422904013,1.4710208366352272E-6,-0.11551248737708975
28.300000000000132,0.1,2.9563473342818037E-7,-0.2,0.51,0.0,6168.635769572092,0.0,67.84581304234437,14.50000014212431,20.076272777093024,4.330101728684752,1.2633586395409578E-6,-0.2157902304682146
28.400000000000134,0.1,2.924665348601232E-7,-0.2,0.51,0.0,6167.437100271645,0.0,68.28109622386013,14.500000252391649,20.066891210330002,4.329056657040582,9.351995840968178E-7,0.03541688632300666
28.500000000000135,0.1,2.577095785152515E-7,-0.2,0.37,0.0,6166.238529898321,0.0,68.70570933202158,14.50000032861203,20.083161957818294,4.144059262740301,5.878260780305842E-7,0.2883913747801725
28.600000000000136,0.1,2.0957658401497877E-7,-0.2,0.37,0.0,6165.320149010996,0.0,69.10980234498398,14.500000374915677,20.107592996961568,3.933016658977622,3.418448803478284E-7,0.19592909800576505
28.700000000000138,0.1,1.7334536567727952E-7,-0.2,0.37,0.0,6164.381236103878,0.0,69.49170861664689,14.500000397726566,20.122379601205125,3.7036313061643646,1.195962821346476E-7,0.09929367755712151
28.80000000000014,0.1,1.3528269500435712E-7,-0.2,0.37,0.0,6163.433387235026,0.0,69.85042162689243,14.50000039984768,20.127380940259826,3.470719653384297,-7.183917793438886E-8,4.7727516318828503E-4
28.90000000000014,0.1,9.758951489687124E-8,-0.2,0.37,0.0,6162.48158062193,0.0,70.18594313572477,14.500000384407787,20.12243978002726,3.24042807849352,-2.3140324033656173E-7,-0.09942025969563371
29.000000000000142,0.1,6.135353239890829E-8,-0.2,0.37,0.0,6161.528006505606,0.0,70.49867255682315,14.500000354641159,20.107482525180764,3.015091640458623,-3.583075160129358E-7,-0.19976329016380082
29.100000000000144,0.1,2.7638021347091453E-8,-0.2,0.51,0.0,6160.573640013734,0.0,70.78914787447616,14.500000313815638,20.082484654947308,2.795380952350259,-4.526730488943025E-7,-0.30018592473345673
29.200000000000145,0.1,-2.666231036887315E-9,-0.2,0.51,0.0,6159.2576714012475,0.0,71.05462942880152,14.500000263866355,20.063919806889164,2.51478023454373,-5.39340913577786E-7,-0.0678918172473403
29.300000000000146,0.1,-3.398560344323531E-8,-0.2,0.51,0.0,6157.941482365725,0.0,71.29235861081926,14.50000020729908,20.06872773055076,2.2408807069271885,-5.852770710866063E-7,0.1640014562170434
29.400000000000148,0.1,-5.901167203133431E-8,-0.2,0.37,0.0,6156.625194242222,0.0,71.50300222064898,14.500000148089986,20.09670291151727,1.9729398603679082,-5.922997366031687E-7,0.3953699408576085
29.50000000000015,0.1,-7.699475110179648E-8,0.2,0.37,0.0,6155.670207764686,0.0,71.69043747656485,14.50000008970264,20.13131253103163,1.777056035088905,-5.712540918100052E-7,0.2935473484661551
29.60000000000015,0.1,-8.913407916685979E-8,0.2,0.37,0.0,6154.800596685882,0.0,71.86228742883142,14.500000034582685,20.156110681805178,1.6943933895914756,-5.27585503647306E-7,0.20533199685449147
29.700000000000152,0.1,-9.583394888466414E-8,0.2,0.37,0.0,6153.931039514799,0.0,72.03369502218048,14.499999984747307,20.172369541088077,1.7484504937468612,-4.666377188516397E-7,0.11875852830595299
29.800000000000153,0.1,-9.759829790289056E-8,0.2,0.37,0.0,6153.012656194362,0.0,72.2138775702729,14.499999941634389,20.179645009922165,1.8614818370268615,-3.940035219057491E-7,0.0257955423210758
29.900000000000155,0.1,-9.514307546420552E-8,0.2,0.37,0.0,6152.073742301642,0.0,72.40678452448465,14.49999990617165,20.177386707577938,1.9991702588096485,-3.1440016821617184E-7,-0.07149043543550723
30.000000000000156,0.1,-8.915197151287182E-8,0.2,0.37,0.0,6151.125893040367,0.0,72.61400731043678,14.499999878842077,20.165275340213423,2.146096489633682,-2.3202246630238894E-7,-0.17098042554886855
30.100000000000158,0.1,-8.032871164602817E-8,0.2,0.51,0.0,6150.174086279083,0.0,72.8360736031025,14.499999859733636,20.14316022646508,2.2952618790575596,-1.5057304608085032E-7,-0.2714121501123063
30.20000000000016,0.1,-6.938919109619227E-8,0.2,0.51,0.0,6148.859700261585,0.0,73.07629633580957,14.499999850055799,20.127450182646793,2.509342225969651,-4.39581264644149E-8,-0.039617420382298235
30.30000000000016,0.1,-5.077600158842818E-8,0.2,0.37,0.0,6147.544222093001,0.0,73.33778108125607,14.499999850620439,20.135051616236915,2.7195807446535483,5.342229414628625E-8,0.19156270995856142
30.400000000000162,0.1,-3.114181829697619E-8,0.2,0.37,0.0,6146.5894997488795,0.0,73.61674782073906,14.499999859095075,20.149283169828628,2.8584828265964726,1.1366685331796754E-7,0.08974702039605781
30.500000000000163,0.1,-1.672000835352459E-8,0.2,0.37,0.0,6145.634617486831,0.0,73.90938882219054,14.499999872904896,20.15316702266586,2.99368696257798,1.5993553706675414E-7,-0.012078225327564474
30.600000000000165,0.1,-3.5995217678881825E-9,0.2,0.37,0.0,6144.679663332057,0.0,74.21535640238956,14.49999989061137,20.146865822637352,3.1249906204043354,1.9184023573388592E-7,-0.11394720168335697
30.700000000000166,0.1,7.739230828009833E-9,0.2,0.37,0.0,6143.724676854711,0.0,74.53425467304133,14.499999910844178,20.13037915926697,3.2522875853905195,2.1067275180395104E-7,-0.21576864272945828
30.800000000000168,0.1,1.7170920122273212E-8,0.2,0.51,0.0,6142.769675846875,0.0,74.86567975290647,14.499999932361249,20.10371724724033,3.375519878227433,2.177685186032036E-7,-0.31743408199534445
30.90000000000017,0.1,2.46148533038243E-8,0.2,0.51,0.0,6141.453314096846,0.0,75.21252326900569,14.499999954033589,20.083347278604485,3.5609196874017504,2.1343639153236047E-7,-0.0867426351093813
31.00000000000017,0.1,2.981668319234929E-8,0.2,0.51,0.0,6140.136948282796,0.0,75.57761530845082,14.499999974659444,20.086191393936467,3.7398075888339495,1.9722326628084966E-7,0.1435866956203629
31.100000000000172,0.1,3.2349297486576964E-8,0.2,0.37,0.0,6138.820580637058,0.0,75.96026745211543,14.49999999316954,20.112049897932632,3.912110858535252,1.7155445007261825E-7,0.37346315490673987
31.200000000000173,0.1,3.239836128358293E-8,0.2,0.37,0.0,6137.865568216387,0.0,76.35652533616526,14.500000009179985,20.14441675654061,4.011710558168332,1.480643601178173E-7,0.2706005202756102
31.300000000000175,0.1,3.218326775982008E-8,0.2,0.37,0.0,6136.91055552572,0.0,76.76251376578509,14.500000022690465,20.166343516073884,4.107395629305205,1.2184324771096254E-7,0.16796283329955436
31.400000000000176,0.1,3.07219796353265E-8,0.2,0.37,0.0,6135.955542713674,0.0,77.17787702309532,14.500000033510878,20.178013045695725,4.199219106256883,9.444756540332878E-8,0.0654380065938415
31.500000000000178,0.1,2.8272558816610263E-8,-0.2,0.37,0.0,6135.000529847441,0.0,77.60223260443188,14.500000041578195,20.17943138099745,4.287255382750718,6.696877313701627E-8,-0.03707754533346074
31.60000000000018,0.1,2.503564925794625E-8,-0.2,0.37,0.0,6134.130907134986,0.0,78.03144157267471,14.500000046920578,20.17112049712223,4.262955668561452,4.003018303809996E-8,-0.12625164243291248
31.70000000000018,0.1,2.1143798348342448E-8,-0.2,0.37,0.0,6133.261356326235,0.0,78.45059776837937,14.500000049646324,20.154169583293783,4.10645872756512,1.4897129316107249E-8,-0.21385027244397511
31.800000000000182,0.1,1.68803966909841E-8,-0.2,0.51,0.0,6132.342975657782,0.0,78.85103964304213,14.500000049991893,20.128136331362395,3.897186509856997,-7.465102377662238E-9,-0.30773860756957955
31.900000000000183,0.1,1.250470964614071E-8,-0.2,0.51,0.0,6131.048798670166,0.0,79.2266139132968,14.500000047892394,20.109010963002916,3.6114997625934393,-3.379304109829694E-8,-0.07224247915890143
32.000000000000185,0.1,6.651262114498471E-9,-0.2,0.37,0.0,6129.742304506532,0.0,79.57317600178146,14.500000043398838,20.113411178827615,3.3196341925606645,-5.5214509284985586E-8,0.1598562311259265
32.100000000000186,0.1,1.10877286723961E-9,-0.2,0.37,0.0,6128.790498028503,0.0,79.89382595464433,14.500000037265108,20.124464587603335,3.09463743635562,-6.663964712017052E-8,0.05777771599297672
32.20000000000019,0.1,-2.8936990909445587E-9,-0.2,0.37,0.0,6127.836924021143,0.0,80.1922203081118,14.500000030219503,20.125117486090478,2.8741022869034225,-7.34694326568948E-8,-0.044780112670596006
